$GNRMC,172705.00,A,4220.2352990,N,07105.2111316,W,0.01,,020224,,,A*4B\r\n"
$GNGGA,172705.00,4220.2352990,N,07105.2111316,W,1,02,0.0,15.952,M,-28.727,M,1.0,*52\r\
  \n"
$GPGSA,A,3,04,08,,,,,,,,,,,0.0,0.0,0.0*3E\r\n"
$GLGSA,A,3,,,,,,,,,,,,,0.0,0.0,0.0*2E\r\n"
$GAGSA,A,3,,,,,,,,,,,,,0.0,0.0,0.0*23\r\n"
$GBGSA,A,3,,,,,,,,,,,,,0.0,0.0,0.0*20\r\n"
$GPGSV,1,1,02,04,31,201,41,08,62,191,42,,,,,,,,*78\r\n"
$GNVTG,,T,,M,0.01,N,0.02,K,A*3E\r\n"
$GNGST,172705.00,2.308,,,,0.793,0.938,1.344*65\r\n"
$GNZDA,172705.00,02,02,2024,00,00*7A\r\n"
$GNRMC,172706.00,A,4220.2352461,N,07105.2109595,W,0.01,,020224,,,D*4A\r\n"
$GNGGA,172706.00,4220.2352461,N,07105.2109595,W,5,07,1.4,15.638,M,-28.727,M,1.0,0061*56\r\
  \n"
$GPGSA,A,3,04,08,16,26,,,,,,,,,3.2,1.4,2.8*33\r\n"
$GLGSA,A,3,75,85,,,,,,,,,,,3.2,1.4,2.8*2F\r\n"
$GAGSA,A,3,07,,,,,,,,,,,,3.2,1.4,2.8*2A\r\n"
$GBGSA,A,3,,,,,,,,,,,,,3.2,1.4,2.8*2E\r\n"
$GPGSV,1,1,04,04,31,201,45,08,62,191,46,16,41,061,37,26,17,077,35*7B\r\n"
$GLGSV,1,1,02,75,49,321,35,85,26,157,38,,,,,,,,*6F\r\n"
$GAGSV,1,1,01,07,34,298,38,,,,,,,,,,,,*51\r\n"
$GNVTG,,T,,M,0.01,N,0.02,K,D*3B\r\n"
$GNGST,172706.00,2.300,,,,0.763,0.907,1.300*6D\r\n"
$GNZDA,172706.00,02,02,2024,00,00*79\r\n"
$GNRMC,172707.00,A,4220.2351958,N,07105.2108907,W,0.01,,020224,,,A*4C\r\n"
$GNGGA,172707.00,4220.2351958,N,07105.2108907,W,1,05,1.3,15.475,M,-28.727,M,2.0,*5B\r\
  \n"
$GPGSA,A,3,04,08,16,,,,,,,,,,3.3,1.3,3.0*38\r\n"
$GLGSA,A,3,85,,,,,,,,,,,,3.3,1.3,3.0*22\r\n"
$GAGSA,A,3,07,,,,,,,,,,,,3.3,1.3,3.0*25\r\n"
$GBGSA,A,3,,,,,,,,,,,,,3.3,1.3,3.0*21\r\n"
$GPGSV,1,1,03,04,31,201,44,08,62,191,46,16,41,061,37,,,,*49\r\n"
$GLGSV,1,1,01,85,26,157,36,,,,,,,,,,,,*5B\r\n"
$GAGSV,1,1,01,07,34,298,38,,,,,,,,,,,,*51\r\n"
$GNVTG,,T,,M,0.01,N,0.02,K,A*3E\r\n"
$GNGST,172707.00,1.261,,,,0.757,0.901,1.268*67\r\n"
$GNZDA,172707.00,02,02,2024,00,00*78\r\n"
$GNRMC,172708.00,A,4220.2350554,N,07105.2109304,W,0.01,,020224,,,D*4F\r\n"
$GNGGA,172708.00,4220.2350554,N,07105.2109304,W,5,06,8.6,15.246,M,-28.727,M,1.0,0061*54\r\
  \n"
$GPGSA,A,3,04,08,16,26,,,,,,,,,10.0,8.6,5.0*07\r\n"
$GLGSA,A,3,85,,,,,,,,,,,,10.0,8.6,5.0*19\r\n"
$GAGSA,A,3,07,,,,,,,,,,,,10.0,8.6,5.0*1E\r\n"
$GBGSA,A,3,,,,,,,,,,,,,10.0,8.6,5.0*1A\r\n"
$GPGSV,1,1,04,04,31,201,43,08,62,191,45,16,41,061,37,26,17,077,35*7E\r\n"
$GLGSV,1,1,01,85,26,157,36,,,,,,,,,,,,*5B\r\n"
$GAGSV,1,1,01,07,34,298,38,,,,,,,,,,,,*51\r\n"
$GNVTG,,T,,M,0.01,N,0.02,K,D*3B\r\n"
$GNGST,172708.00,3.700,,,,0.750,0.893,1.230*68\r\n"
$GNZDA,172708.00,02,02,2024,00,00*77\r\n"
$GNRMC,172709.00,A,4220.2349252,N,07105.2109464,W,0.01,,020224,,,D*46\r\n"
$GNGGA,172709.00,4220.2349252,N,07105.2109464,W,5,07,8.6,14.941,M,-28.727,M,2.0,0061*52\r\
  \n"
$GPGSA,A,3,04,08,16,26,,,,,,,,,10.0,8.6,5.0*07\r\n"
$GLGSA,A,3,74,85,,,,,,,,,,,10.0,8.6,5.0*1A\r\n"
$GAGSA,A,3,07,,,,,,,,,,,,10.0,8.6,5.0*1E\r\n"
$GBGSA,A,3,,,,,,,,,,,,,10.0,8.6,5.0*1A\r\n"
$GPGSV,1,1,04,04,31,201,43,08,62,191,46,16,41,061,37,26,17,077,35*7D\r\n"
$GLGSV,1,1,02,74,49,061,37,85,26,157,36,,,,,,,,*65\r\n"
$GAGSV,1,1,01,07,34,298,37,,,,,,,,,,,,*5E\r\n"
$GNVTG,,T,,M,0.01,N,0.02,K,D*3B\r\n"
$GNGST,172709.00,2.998,,,,0.744,0.886,1.197*68\r\n"
$GNZDA,172709.00,02,02,2024,00,00*76\r\n"
$GNRMC,172710.00,A,4220.2348355,N,07105.2109593,W,0.01,,020224,,,D*40\r\n"
$GNGGA,172710.00,4220.2348355,N,07105.2109593,W,5,07,8.6,14.846,M,-28.727,M,1.0,0061*51\r\
  \n"
$GPGSA,A,3,04,08,16,26,,,,,,,,,10.0,8.6,5.0*07\r\n"
$GLGSA,A,3,74,85,,,,,,,,,,,10.0,8.6,5.0*1A\r\n"
$GAGSA,A,3,07,,,,,,,,,,,,10.0,8.6,5.0*1E\r\n"
$GBGSA,A,3,,,,,,,,,,,,,10.0,8.6,5.0*1A\r\n"
$GPGSV,1,1,04,04,31,201,43,08,62,191,46,16,41,061,37,26,17,077,35*7D\r\n"
$GLGSV,1,1,02,74,49,061,36,85,26,157,37,,,,,,,,*65\r\n"
$GAGSV,1,1,01,07,34,298,37,,,,,,,,,,,,*5E\r\n"
$GNVTG,,T,,M,0.01,N,0.02,K,D*3B\r\n"
$GNGST,172710.00,2.545,,,,0.738,0.880,1.164*6D\r\n"
$GNZDA,172710.00,02,02,2024,00,00*7E\r\n"
$GNRMC,172711.00,A,4220.2347630,N,07105.2109344,W,0.01,,020224,,,D*44\r\n"
$GNGGA,172711.00,4220.2347630,N,07105.2109344,W,5,07,8.6,14.550,M,-28.727,M,1.0,0061*5F\r\
  \n"
$GPGSA,A,3,04,08,16,26,,,,,,,,,10.0,8.6,5.0*07\r\n"
$GLGSA,A,3,74,,,,,,,,,,,,10.0,8.6,5.0*17\r\n"
$GAGSA,A,3,02,07,,,,,,,,,,,10.0,8.6,5.0*1C\r\n"
$GBGSA,A,3,,,,,,,,,,,,,10.0,8.6,5.0*1A\r\n"
$GPGSV,1,1,04,04,31,201,42,08,62,191,44,16,41,061,36,26,17,077,35*7F\r\n"
$GLGSV,1,1,01,74,49,061,35,,,,,,,,,,,,*5B\r\n"
$GAGSV,1,1,02,02,71,021,41,07,34,298,37,,,,,,,,*6F\r\n"
$GNVTG,,T,,M,0.01,N,0.02,K,D*3B\r\n"
$GNGST,172711.00,1.081,,,,0.732,0.874,1.134*66\r\n"
$GNZDA,172711.00,02,02,2024,00,00*7F\r\n"
$GNRMC,172712.00,A,4220.2347074,N,07105.2109187,W,0.01,,020224,,,D*4C\r\n"
$GNGGA,172712.00,4220.2347074,N,07105.2109187,W,5,06,8.6,14.267,M,-28.727,M,2.0,0061*56\r\
  \n"
$GPGSA,A,3,04,08,16,26,,,,,,,,,10.0,8.6,5.0*07\r\n"
$GLGSA,A,3,,,,,,,,,,,,,10.0,8.6,5.0*14\r\n"
$GAGSA,A,3,02,07,,,,,,,,,,,10.0,8.6,5.0*1C\r\n"
$GBGSA,A,3,,,,,,,,,,,,,10.0,8.6,5.0*1A\r\n"
$GPGSV,1,1,04,04,31,201,42,08,62,191,46,16,41,061,36,26,17,077,35*7D\r\n"
$GAGSV,1,1,02,02,71,021,41,07,34,298,37,,,,,,,,*6F\r\n"
$GNVTG,,T,,M,0.01,N,0.02,K,D*3B\r\n"
$GNGST,172712.00,0.848,,,,0.727,0.868,1.108*6F\r\n"
$GNZDA,172712.00,02,02,2024,00,00*7C\r\n"
$GNRMC,172713.00,A,4220.2346654,N,07105.2109508,W,0.01,,020224,,,D*4B\r\n"
$GNGGA,172713.00,4220.2346654,N,07105.2109508,W,5,07,8.6,14.038,M,-28.727,M,1.0,0061*5B\r\
  \n"
$GPGSA,A,3,04,08,16,26,,,,,,,,,10.0,8.6,5.0*07\r\n"
$GLGSA,A,3,85,,,,,,,,,,,,10.0,8.6,5.0*19\r\n"
$GAGSA,A,3,02,07,,,,,,,,,,,10.0,8.6,5.0*1C\r\n"
$GBGSA,A,3,,,,,,,,,,,,,10.0,8.6,5.0*1A\r\n"
$GPGSV,1,1,04,04,31,201,41,08,62,191,46,16,41,061,36,26,17,077,36*7D\r\n"
$GLGSV,1,1,01,85,26,157,35,,,,,,,,,,,,*58\r\n"
$GAGSV,1,1,02,02,71,021,41,07,34,298,38,,,,,,,,*60\r\n"
$GNVTG,,T,,M,0.01,N,0.02,K,D*3B\r\n"
$GNGST,172713.00,0.950,,,,0.722,0.863,1.082*6B\r\n"
$GNZDA,172713.00,02,02,2024,00,00*7D\r\n"
$GNRMC,172714.00,A,4220.2346186,N,07105.2109767,W,0.01,,020224,,,D*4F\r\n"
$GNGGA,172714.00,4220.2346186,N,07105.2109767,W,5,07,8.6,13.757,M,-28.727,M,2.0,0061*55\r\
  \n"
$GPGSA,A,3,04,08,16,26,,,,,,,,,10.0,8.6,5.0*07\r\n"
$GLGSA,A,3,85,,,,,,,,,,,,10.0,8.6,5.0*19\r\n"
$GAGSA,A,3,02,07,,,,,,,,,,,10.0,8.6,5.0*1C\r\n"
$GBGSA,A,3,,,,,,,,,,,,,10.0,8.6,5.0*1A\r\n"
$GPGSV,1,1,04,04,31,201,42,08,62,191,46,16,41,061,35,26,16,077,35*7F\r\n"
$GLGSV,1,1,01,85,26,157,37,,,,,,,,,,,,*5A\r\n"
$GAGSV,1,1,02,02,71,021,41,07,34,298,38,,,,,,,,*60\r\n"
$GNVTG,,T,,M,0.01,N,0.02,K,D*3B\r\n"
$GNGST,172714.00,1.375,,,,0.718,0.858,1.060*6D\r\n"
$GNZDA,172714.00,02,02,2024,00,00*7A\r\n"
$GNRMC,172715.00,A,4220.2345668,N,07105.2110253,W,0.01,,020224,,,D*40\r\n"
$GNGGA,172715.00,4220.2345668,N,07105.2110253,W,5,08,8.6,13.373,M,-28.727,M,1.0,0061*54\r\
  \n"
$GPGSA,A,3,04,08,16,26,,,,,,,,,10.0,8.6,5.0*07\r\n"
$GLGSA,A,3,74,85,,,,,,,,,,,10.0,8.6,5.0*1A\r\n"
$GAGSA,A,3,02,07,,,,,,,,,,,10.0,8.6,5.0*1C\r\n"
$GBGSA,A,3,,,,,,,,,,,,,10.0,8.6,5.0*1A\r\n"
$GPGSV,1,1,04,04,31,201,42,08,62,191,45,16,41,061,35,26,16,077,35*7C\r\n"
$GLGSV,1,1,02,74,49,061,35,85,26,157,37,,,,,,,,*66\r\n"
$GAGSV,1,1,02,02,71,021,41,07,34,298,37,,,,,,,,*6F\r\n"
$GNVTG,,T,,M,0.01,N,0.02,K,D*3B\r\n"
$GNGST,172715.00,1.867,,,,0.713,0.853,1.037*66\r\n"
$GNZDA,172715.00,02,02,2024,00,00*7B\r\n"
$GNRMC,172716.00,A,4220.2345202,N,07105.2110709,W,0.01,,020224,,,D*41\r\n"
$GNGGA,172716.00,4220.2345202,N,07105.2110709,W,5,08,8.6,13.020,M,-28.727,M,1.0,0061*50\r\
  \n"
$GPGSA,A,3,04,08,16,26,,,,,,,,,10.0,8.6,5.0*07\r\n"
$GLGSA,A,3,74,85,,,,,,,,,,,10.0,8.6,5.0*1A\r\n"
$GAGSA,A,3,02,07,,,,,,,,,,,10.0,8.6,5.0*1C\r\n"
$GBGSA,A,3,,,,,,,,,,,,,10.0,8.6,5.0*1A\r\n"
$GPGSV,1,1,04,04,31,201,40,08,62,191,45,16,41,061,35,26,16,077,35*7E\r\n"
$GLGSV,1,1,02,74,49,061,37,85,26,157,41,,,,,,,,*65\r\n"
$GAGSV,1,1,02,02,71,021,40,07,34,298,37,,,,,,,,*6E\r\n"
$GNVTG,,T,,M,0.01,N,0.02,K,D*3B\r\n"
$GNGST,172716.00,2.065,,,,0.709,0.849,1.016*6F\r\n"
$GNZDA,172716.00,02,02,2024,00,00*78\r\n"
$GNRMC,172717.00,A,4220.2344854,N,07105.2111206,W,0.01,,020224,,,A*46\r\n"
$GNGGA,172717.00,4220.2344854,N,07105.2111206,W,1,06,1.2,12.624,M,-28.727,M,2.0,*52\r\
  \n"
$GPGSA,A,3,04,08,16,,,,,,,,,,2.7,1.2,2.4*39\r\n"
$GLGSA,A,3,85,,,,,,,,,,,,2.7,1.2,2.4*23\r\n"
$GAGSA,A,3,02,07,,,,,,,,,,,2.7,1.2,2.4*26\r\n"
$GBGSA,A,3,,,,,,,,,,,,,2.7,1.2,2.4*20\r\n"
$GPGSV,1,1,03,04,31,201,39,08,62,191,45,16,41,061,35,,,,*42\r\n"
$GLGSV,1,1,01,85,26,157,39,,,,,,,,,,,,*54\r\n"
$GAGSV,1,1,02,02,71,021,40,07,34,298,37,,,,,,,,*6E\r\n"
$GNVTG,,T,,M,0.01,N,0.02,K,A*3E\r\n"
$GNGST,172717.00,1.094,,,,0.706,0.846,1.000*64\r\n"
$GNZDA,172717.00,02,02,2024,00,00*79\r\n"
$GNRMC,172718.00,A,4220.2344505,N,07105.2111960,W,0.01,,020224,,,D*4E\r\n"
$GNGGA,172718.00,4220.2344505,N,07105.2111960,W,5,07,8.7,12.324,M,-28.727,M,1.0,0061*57\r\
  \n"
$GPGSA,A,3,04,08,16,26,,,,,,,,,10.0,8.7,5.0*06\r\n"
$GLGSA,A,3,85,,,,,,,,,,,,10.0,8.7,5.0*18\r\n"
$GAGSA,A,3,02,07,,,,,,,,,,,10.0,8.7,5.0*1D\r\n"
$GBGSA,A,3,,,,,,,,,,,,,10.0,8.7,5.0*1B\r\n"
$GPGSV,1,1,04,04,31,201,40,08,62,191,47,16,41,061,37,26,16,077,36*7D\r\n"
$GLGSV,1,1,01,85,26,157,38,,,,,,,,,,,,*55\r\n"
$GAGSV,1,1,02,02,71,021,42,07,34,298,39,,,,,,,,*62\r\n"
$GNVTG,,T,,M,0.01,N,0.02,K,D*3B\r\n"
$GNGST,172718.00,2.924,,,,0.702,0.842,0.982*68\r\n"
$GNZDA,172718.00,02,02,2024,00,00*76\r\n"
$GNRMC,172719.00,A,4220.2344264,N,07105.2112917,W,0.01,,020224,,,D*4C\r\n"
$GNGGA,172719.00,4220.2344264,N,07105.2112917,W,5,07,8.7,12.042,M,-28.727,M,2.0,0061*55\r\
  \n"
$GPGSA,A,3,04,08,16,26,,,,,,,,,10.0,8.7,5.0*06\r\n"
$GLGSA,A,3,85,,,,,,,,,,,,10.0,8.7,5.0*18\r\n"
$GAGSA,A,3,02,07,,,,,,,,,,,10.0,8.7,5.0*1D\r\n"
$GBGSA,A,3,,,,,,,,,,,,,10.0,8.7,5.0*1B\r\n"
$GPGSV,1,1,04,04,31,201,39,08,62,191,46,16,41,061,37,26,16,077,36*72\r\n"
$GLGSV,1,1,01,85,26,157,38,,,,,,,,,,,,*55\r\n"
$GAGSV,1,1,02,02,71,021,42,07,34,298,39,,,,,,,,*62\r\n"
$GNVTG,,T,,M,0.01,N,0.02,K,D*3B\r\n"
$GNGST,172719.00,3.585,,,,0.698,0.838,0.966*6A\r\n"
$GNZDA,172719.00,02,02,2024,00,00*77\r\n"
$GNRMC,172720.00,A,4220.2344239,N,07105.2114106,W,0.01,,020224,,,D*40\r\n"
$GNGGA,172720.00,4220.2344239,N,07105.2114106,W,5,07,8.7,11.795,M,-28.727,M,1.0,0061*54\r\
  \n"
$GPGSA,A,3,04,08,16,26,,,,,,,,,10.0,8.7,5.0*06\r\n"
$GLGSA,A,3,85,,,,,,,,,,,,10.0,8.7,5.0*18\r\n"
$GAGSA,A,3,02,07,,,,,,,,,,,10.0,8.7,5.0*1D\r\n"
$GBGSA,A,3,,,,,,,,,,,,,10.0,8.7,5.0*1B\r\n"
$GPGSV,1,1,04,04,31,201,37,08,62,191,45,16,41,061,35,26,16,077,35*7E\r\n"
$GLGSV,1,1,01,85,27,157,38,,,,,,,,,,,,*54\r\n"
$GAGSV,1,1,02,02,71,021,39,07,34,298,37,,,,,,,,*60\r\n"
$GNVTG,,T,,M,0.01,N,0.02,K,D*3B\r\n"
$GNGST,172720.00,4.067,,,,0.695,0.834,0.950*6A\r\n"
$GNZDA,172720.00,02,02,2024,00,00*7D\r\n"
$GNRMC,172721.00,A,4220.2344161,N,07105.2115172,W,0.01,,020224,,,A*48\r\n"
$GNGGA,172721.00,4220.2344161,N,07105.2115172,W,1,06,1.2,11.428,M,-28.727,M,1.0,*52\r\
  \n"
$GPGSA,A,3,04,08,26,,,,,,,,,,2.2,1.2,1.9*31\r\n"
$GLGSA,A,3,85,,,,,,,,,,,,2.2,1.2,1.9*28\r\n"
$GAGSA,A,3,02,07,,,,,,,,,,,2.2,1.2,1.9*2D\r\n"
$GBGSA,A,3,,,,,,,,,,,,,2.2,1.2,1.9*2B\r\n"
$GPGSV,1,1,03,04,31,201,37,08,62,191,45,26,16,077,35,,,,*4A\r\n"
$GLGSV,1,1,01,85,27,157,38,,,,,,,,,,,,*54\r\n"
$GAGSV,1,1,02,02,71,021,40,07,34,298,37,,,,,,,,*6E\r\n"
$GNVTG,,T,,M,0.01,N,0.02,K,A*3E\r\n"
$GNGST,172721.00,2.030,,,,0.692,0.832,0.935*6D\r\n"
$GNZDA,172721.00,02,02,2024,00,00*7C\r\n"
$GNRMC,172722.00,A,4220.2343987,N,07105.2116486,W,0.01,,020224,,,D*44\r\n"
$GNGGA,172722.00,4220.2343987,N,07105.2116486,W,5,08,1.3,11.102,M,-28.727,M,2.0,0061*59\r\
  \n"
$GPGSA,A,3,04,07,08,16,26,,,,,,,,2.9,1.3,2.6*37\r\n"
$GLGSA,A,3,85,,,,,,,,,,,,2.9,1.3,2.6*2E\r\n"
$GAGSA,A,3,02,07,,,,,,,,,,,2.9,1.3,2.6*2B\r\n"
$GBGSA,A,3,,,,,,,,,,,,,2.9,1.3,2.6*2D\r\n"
$GPGSV,2,1,05,04,31,201,38,07,37,308,35,08,62,191,46,16,41,061,35*7B\r\n"
$GPGSV,2,2,05,26,16,077,35,,,,,,,,,,,,*49\r\n"
$GLGSV,1,1,01,85,27,157,39,,,,,,,,,,,,*55\r\n"
$GAGSV,1,1,02,02,71,021,41,07,34,298,38,,,,,,,,*60\r\n"
$GNVTG,,T,,M,0.01,N,0.02,K,D*3B\r\n"
$GNGST,172722.00,4.202,,,,0.639,0.762,0.885*6A\r\n"
$GNZDA,172722.00,02,02,2024,00,00*7F\r\n"
$GNRMC,172723.00,A,4220.2341930,N,07105.2114634,W,0.01,,020224,,,D*42\r\n"
$GNGGA,172723.00,4220.2341930,N,07105.2114634,W,5,08,1.3,10.987,M,-28.727,M,1.0,0061*58\r\
  \n"
$GPGSA,A,3,04,07,08,16,26,,,,,,,,2.9,1.3,2.6*37\r\n"
$GLGSA,A,3,85,,,,,,,,,,,,2.9,1.3,2.6*2E\r\n"
$GAGSA,A,3,02,07,,,,,,,,,,,2.9,1.3,2.6*2B\r\n"
$GBGSA,A,3,,,,,,,,,,,,,2.9,1.3,2.6*2D\r\n"
$GPGSV,2,1,05,04,31,201,38,07,37,308,36,08,62,191,47,16,41,061,35*79\r\n"
$GPGSV,2,2,05,26,16,077,37,,,,,,,,,,,,*4B\r\n"
$GLGSV,1,1,01,85,27,157,40,,,,,,,,,,,,*5B\r\n"
$GAGSV,1,1,02,02,71,021,42,07,34,298,40,,,,,,,,*6C\r\n"
$GNVTG,,T,,M,0.01,N,0.02,K,D*3B\r\n"
$GNGST,172723.00,4.591,,,,0.601,0.715,0.847*63\r\n"
$GNZDA,172723.00,02,02,2024,00,00*7E\r\n"
$GNRMC,172724.00,A,4220.2340393,N,07105.2113236,W,0.01,,020224,,,A*43\r\n"
$GNGGA,172724.00,4220.2340393,N,07105.2113236,W,1,06,1.9,10.859,M,-28.727,M,2.0,*5A\r\
  \n"
$GPGSA,A,3,04,07,08,,,,,,,,,,3.3,1.9,2.7*34\r\n"
$GLGSA,A,3,85,,,,,,,,,,,,3.3,1.9,2.7*2E\r\n"
$GAGSA,A,3,02,07,,,,,,,,,,,3.3,1.9,2.7*2B\r\n"
$GBGSA,A,3,,,,,,,,,,,,,3.3,1.9,2.7*2D\r\n"
$GPGSV,1,1,03,04,31,201,36,07,37,308,35,08,62,191,45,,,,*40\r\n"
$GLGSV,1,1,01,85,27,157,38,,,,,,,,,,,,*54\r\n"
$GAGSV,1,1,02,02,71,021,40,07,34,298,38,,,,,,,,*61\r\n"
$GNVTG,,T,,M,0.01,N,0.02,K,A*3E\r\n"
$GNGST,172724.00,2.512,,,,0.570,0.686,0.815*60\r\n"
$GNZDA,172724.00,02,02,2024,00,00*79\r\n"
$GNRMC,172725.00,A,4220.2338907,N,07105.2112031,W,0.01,,020224,,,A*4E\r\n"
$GNGGA,172725.00,4220.2338907,N,07105.2112031,W,1,06,1.9,10.656,M,-28.727,M,1.0,*55\r\
  \n"
$GPGSA,A,3,04,07,08,,,,,,,,,,3.3,1.9,2.7*34\r\n"
$GLGSA,A,3,85,,,,,,,,,,,,3.3,1.9,2.7*2E\r\n"
$GAGSA,A,3,02,07,,,,,,,,,,,3.3,1.9,2.7*2B\r\n"
$GBGSA,A,3,,,,,,,,,,,,,3.3,1.9,2.7*2D\r\n"
$GPGSV,1,1,03,04,31,201,35,07,37,308,36,08,62,191,45,,,,*40\r\n"
$GLGSV,1,1,01,85,27,157,38,,,,,,,,,,,,*54\r\n"
$GAGSV,1,1,02,02,71,021,40,07,34,298,38,,,,,,,,*61\r\n"
$GNVTG,,T,,M,0.01,N,0.02,K,A*3E\r\n"
$GNGST,172725.00,2.752,,,,0.542,0.658,0.785*63\r\n"
$GNZDA,172725.00,02,02,2024,00,00*78\r\n"
$GNRMC,172726.00,A,4220.2337582,N,07105.2111317,W,0.01,,020224,,,D*42\r\n"
$GNGGA,172726.00,4220.2337582,N,07105.2111317,W,5,07,1.5,10.458,M,-28.727,M,1.0,0061*5E\r\
  \n"
$GPGSA,A,3,04,07,08,26,,,,,,,,,3.4,1.5,3.1*3C\r\n"
$GLGSA,A,3,85,,,,,,,,,,,,3.4,1.5,3.1*22\r\n"
$GAGSA,A,3,02,07,,,,,,,,,,,3.4,1.5,3.1*27\r\n"
$GBGSA,A,3,,,,,,,,,,,,,3.4,1.5,3.1*21\r\n"
$GPGSV,1,1,04,04,31,201,36,07,37,308,37,08,62,191,46,26,16,078,35*7C\r\n"
$GLGSV,1,1,01,85,27,157,39,,,,,,,,,,,,*55\r\n"
$GAGSV,1,1,02,02,71,021,40,07,34,298,39,,,,,,,,*60\r\n"
$GNVTG,,T,,M,0.01,N,0.02,K,D*3B\r\n"
$GNGST,172726.00,5.961,,,,0.520,0.634,0.759*66\r\n"
$GNZDA,172726.00,02,02,2024,00,00*7B\r\n"
$GNRMC,172727.00,A,4220.2336409,N,07105.2111008,W,0.01,,020224,,,D*4D\r\n"
$GNGGA,172727.00,4220.2336409,N,07105.2111008,W,5,07,1.5,10.265,M,-28.727,M,2.0,0061*5A\r\
  \n"
$GPGSA,A,3,04,07,08,26,,,,,,,,,3.4,1.5,3.1*3C\r\n"
$GLGSA,A,3,85,,,,,,,,,,,,3.4,1.5,3.1*22\r\n"
$GAGSA,A,3,02,07,,,,,,,,,,,3.4,1.5,3.1*27\r\n"
$GBGSA,A,3,,,,,,,,,,,,,3.4,1.5,3.1*21\r\n"
$GPGSV,1,1,04,04,31,201,37,07,37,308,37,08,62,191,46,26,16,078,35*7D\r\n"
$GLGSV,1,1,01,85,27,157,40,,,,,,,,,,,,*5B\r\n"
$GAGSV,1,1,02,02,71,021,40,07,34,298,39,,,,,,,,*60\r\n"
$GNVTG,,T,,M,0.01,N,0.02,K,D*3B\r\n"
$GNGST,172727.00,6.295,,,,0.500,0.613,0.736*6A\r\n"
$GNZDA,172727.00,02,02,2024,00,00*7A\r\n"
$GNRMC,172728.00,A,4220.2335438,N,07105.2110378,W,0.01,,020224,,,A*43\r\n"
$GNGGA,172728.00,4220.2335438,N,07105.2110378,W,1,06,1.9,10.098,M,-28.727,M,1.0,*5C\r\
  \n"
$GPGSA,A,3,04,07,08,,,,,,,,,,3.3,1.9,2.7*34\r\n"
$GLGSA,A,3,85,,,,,,,,,,,,3.3,1.9,2.7*2E\r\n"
$GAGSA,A,3,02,07,,,,,,,,,,,3.3,1.9,2.7*2B\r\n"
$GBGSA,A,3,,,,,,,,,,,,,3.3,1.9,2.7*2D\r\n"
$GPGSV,1,1,03,04,31,201,38,07,37,308,37,08,62,191,46,,,,*4F\r\n"
$GLGSV,1,1,01,85,27,157,40,,,,,,,,,,,,*5B\r\n"
$GAGSV,1,1,02,02,71,021,40,07,34,298,38,,,,,,,,*61\r\n"
$GNVTG,,T,,M,0.01,N,0.02,K,A*3E\r\n"
$GNGST,172728.00,2.973,,,,0.483,0.598,0.714*68\r\n"
$GNZDA,172728.00,02,02,2024,00,00*75\r\n"
$GNRMC,172729.00,A,4220.2334478,N,07105.2109709,W,0.01,,020224,,,A*4D\r\n"
$GNGGA,172729.00,4220.2334478,N,07105.2109709,W,1,06,1.9,9.958,M,-28.727,M,2.0,*6C\r\
  \n"
$GPGSA,A,3,04,07,08,,,,,,,,,,3.3,1.9,2.7*34\r\n"
$GLGSA,A,3,85,,,,,,,,,,,,3.3,1.9,2.7*2E\r\n"
$GAGSA,A,3,02,07,,,,,,,,,,,3.3,1.9,2.7*2B\r\n"
$GBGSA,A,3,,,,,,,,,,,,,3.3,1.9,2.7*2D\r\n"
$GPGSV,1,1,03,04,31,201,38,07,37,308,38,08,62,191,46,,,,*40\r\n"
$GLGSV,1,1,01,85,27,157,40,,,,,,,,,,,,*5B\r\n"
$GAGSV,1,1,02,02,71,021,40,07,34,298,39,,,,,,,,*60\r\n"
$GNVTG,,T,,M,0.01,N,0.02,K,A*3E\r\n"
$GNGST,172729.00,2.870,,,,0.467,0.584,0.695*64\r\n"
$GNZDA,172729.00,02,02,2024,00,00*74\r\n"
$GNRMC,172730.00,A,4220.2333377,N,07105.2108984,W,0.01,,020224,,,A*40\r\n"
$GNGGA,172730.00,4220.2333377,N,07105.2108984,W,1,07,1.3,9.751,M,-28.727,M,1.0,*6E\r\
  \n"
$GPGSA,A,3,04,07,08,,,,,,,,,,2.8,1.3,2.5*36\r\n"
$GLGSA,A,3,74,85,,,,,,,,,,,2.8,1.3,2.5*2F\r\n"
$GAGSA,A,3,02,07,,,,,,,,,,,2.8,1.3,2.5*29\r\n"
$GBGSA,A,3,,,,,,,,,,,,,2.8,1.3,2.5*2F\r\n"
$GPGSV,1,1,03,04,31,201,38,07,37,308,38,08,62,191,46,,,,*40\r\n"
$GLGSV,1,1,02,74,49,061,35,85,27,157,41,,,,,,,,*66\r\n"
$GAGSV,1,1,02,02,71,021,39,07,34,298,39,,,,,,,,*6E\r\n"
$GNVTG,,T,,M,0.01,N,0.02,K,A*3E\r\n"
$GNGST,172730.00,2.638,,,,0.453,0.572,0.677*6C\r\n"
$GNZDA,172730.00,02,02,2024,00,00*7C\r\n"
$GNRMC,172731.00,A,4220.2332510,N,07105.2108394,W,0.01,,020224,,,A*4C\r\n"
$GNGGA,172731.00,4220.2332510,N,07105.2108394,W,1,07,1.3,9.636,M,-28.727,M,1.0,*62\r\
  \n"
$GPGSA,A,3,04,07,08,,,,,,,,,,2.8,1.3,2.5*36\r\n"
$GLGSA,A,3,74,85,,,,,,,,,,,2.8,1.3,2.5*2F\r\n"
$GAGSA,A,3,02,07,,,,,,,,,,,2.8,1.3,2.5*29\r\n"
$GBGSA,A,3,,,,,,,,,,,,,2.8,1.3,2.5*2F\r\n"
$GPGSV,1,1,03,04,31,201,40,07,37,308,38,08,62,191,46,,,,*4F\r\n"
$GLGSV,1,1,02,74,49,061,35,85,27,157,42,,,,,,,,*65\r\n"
$GAGSV,1,1,02,02,71,021,40,07,34,298,39,,,,,,,,*60\r\n"
$GNVTG,,T,,M,0.01,N,0.02,K,A*3E\r\n"
$GNGST,172731.00,2.652,,,,0.441,0.561,0.660*66\r\n"
$GNZDA,172731.00,02,02,2024,00,00*7D\r\n"
$GNRMC,172732.00,A,4220.2331698,N,07105.2107815,W,0.01,,020224,,,A*42\r\n"
$GNGGA,172732.00,4220.2331698,N,07105.2107815,W,1,07,1.3,9.548,M,-28.727,M,2.0,*65\r\
  \n"
$GPGSA,A,3,04,07,08,,,,,,,,,,2.8,1.3,2.5*36\r\n"
$GLGSA,A,3,74,85,,,,,,,,,,,2.8,1.3,2.5*2F\r\n"
$GAGSA,A,3,02,07,,,,,,,,,,,2.8,1.3,2.5*29\r\n"
$GBGSA,A,3,,,,,,,,,,,,,2.8,1.3,2.5*2F\r\n"
$GPGSV,1,1,03,04,31,201,40,07,37,308,38,08,62,191,46,,,,*4F\r\n"
$GLGSV,1,1,02,74,49,061,35,85,27,157,42,,,,,,,,*65\r\n"
$GAGSV,1,1,02,02,71,021,40,07,34,298,39,,,,,,,,*60\r\n"
$GNVTG,,T,,M,0.01,N,0.02,K,A*3E\r\n"
$GNGST,172732.00,2.485,,,,0.429,0.551,0.645*67\r\n"
$GNZDA,172732.00,02,02,2024,00,00*7E\r\n"
$GNRMC,172733.00,A,4220.2330946,N,07105.2107315,W,0.01,,020224,,,A*45\r\n"
$GNGGA,172733.00,4220.2330946,N,07105.2107315,W,1,07,1.3,9.436,M,-28.727,M,1.0,*69\r\
  \n"
$GPGSA,A,3,04,07,08,,,,,,,,,,2.8,1.3,2.5*36\r\n"
$GLGSA,A,3,74,85,,,,,,,,,,,2.8,1.3,2.5*2F\r\n"
$GAGSA,A,3,02,07,,,,,,,,,,,2.8,1.3,2.5*29\r\n"
$GBGSA,A,3,,,,,,,,,,,,,2.8,1.3,2.5*2F\r\n"
$GPGSV,1,1,03,04,31,201,42,07,37,308,39,08,62,191,47,,,,*4D\r\n"
$GLGSV,1,1,02,74,49,061,35,85,27,157,41,,,,,,,,*66\r\n"
$GAGSV,1,1,02,02,71,021,40,07,34,298,40,,,,,,,,*6E\r\n"
$GNVTG,,T,,M,0.01,N,0.02,K,A*3E\r\n"
$GNGST,172733.00,2.308,,,,0.418,0.542,0.629*6E\r\n"
$GNZDA,172733.00,02,02,2024,00,00*7F\r\n"
$GNRMC,172734.00,A,4220.2330341,N,07105.2107169,W,0.01,,020224,,,D*43\r\n"
$GNGGA,172734.00,4220.2330341,N,07105.2107169,W,5,08,1.5,9.382,M,-28.727,M,2.0,0061*6B\r\
  \n"
$GPGSA,A,3,04,07,08,26,,,,,,,,,3.4,1.5,3.1*3C\r\n"
$GLGSA,A,3,74,85,,,,,,,,,,,3.4,1.5,3.1*21\r\n"
$GAGSA,A,3,02,07,,,,,,,,,,,3.4,1.5,3.1*27\r\n"
$GBGSA,A,3,,,,,,,,,,,,,3.4,1.5,3.1*21\r\n"
$GPGSV,1,1,04,04,31,201,42,07,37,308,39,08,62,191,47,26,16,078,35*70\r\n"
$GLGSV,1,1,02,74,49,061,35,85,27,157,40,,,,,,,,*67\r\n"
$GAGSV,1,1,02,02,71,021,40,07,34,298,40,,,,,,,,*6E\r\n"
$GNVTG,,T,,M,0.01,N,0.02,K,D*3B\r\n"
$GNGST,172734.00,4.978,,,,0.408,0.531,0.614*69\r\n"
$GNZDA,172734.00,02,02,2024,00,00*78\r\n"
$GNRMC,172735.00,A,4220.2329801,N,07105.2106828,W,0.01,,020224,,,A*4D\r\n"
$GNGGA,172735.00,4220.2329801,N,07105.2106828,W,1,07,1.2,9.310,M,-28.727,M,1.0,*63\r\
  \n"
$GPGSA,A,3,04,07,,,,,,,,,,,3.4,1.2,3.2*34\r\n"
$GLGSA,A,3,74,85,,,,,,,,,,,3.4,1.2,3.2*25\r\n"
$GAGSA,A,3,02,07,08,,,,,,,,,,3.4,1.2,3.2*2B\r\n"
$GBGSA,A,3,,,,,,,,,,,,,3.4,1.2,3.2*25\r\n"
$GPGSV,1,1,02,04,31,201,42,07,37,308,39,,,,,,,,*7A\r\n"
$GLGSV,1,1,02,74,49,061,35,85,27,157,40,,,,,,,,*67\r\n"
$GAGSV,1,1,03,02,71,021,40,07,34,298,39,08,43,228,35,,,,*50\r\n"
$GNVTG,,T,,M,0.01,N,0.02,K,A*3E\r\n"
$GNGST,172735.00,1.957,,,,0.399,0.523,0.600*69\r\n"
$GNZDA,172735.00,02,02,2024,00,00*79\r\n"
$GNRMC,172736.00,A,4220.2329333,N,07105.2106440,W,0.01,,020224,,,A*46\r\n"
$GNGGA,172736.00,4220.2329333,N,07105.2106440,W,1,07,1.2,9.315,M,-28.727,M,1.0,*6D\r\
  \n"
$GPGSA,A,3,04,07,,,,,,,,,,,3.4,1.2,3.2*34\r\n"
$GLGSA,A,3,74,85,,,,,,,,,,,3.4,1.2,3.2*25\r\n"
$GAGSA,A,3,02,07,08,,,,,,,,,,3.4,1.2,3.2*2B\r\n"
$GBGSA,A,3,,,,,,,,,,,,,3.4,1.2,3.2*25\r\n"
$GPGSV,1,1,02,04,31,201,42,07,37,308,39,,,,,,,,*7A\r\n"
$GLGSV,1,1,02,74,49,061,36,85,27,157,42,,,,,,,,*66\r\n"
$GAGSV,1,1,03,02,71,021,40,07,34,298,40,08,43,228,35,,,,*5E\r\n"
$GNVTG,,T,,M,0.01,N,0.02,K,A*3E\r\n"
$GNGST,172736.00,1.658,,,,0.390,0.516,0.588*66\r\n"
$GNZDA,172736.00,02,02,2024,00,00*7A\r\n"
$GNRMC,172737.00,A,4220.2328977,N,07105.2106134,W,0.01,,020224,,,A*4A\r\n"
$GNGGA,172737.00,4220.2328977,N,07105.2106134,W,1,07,1.2,9.330,M,-28.727,M,2.0,*65\r\
  \n"
$GPGSA,A,3,04,07,,,,,,,,,,,3.4,1.2,3.2*34\r\n"
$GLGSA,A,3,74,85,,,,,,,,,,,3.4,1.2,3.2*25\r\n"
$GAGSA,A,3,02,07,08,,,,,,,,,,3.4,1.2,3.2*2B\r\n"
$GBGSA,A,3,,,,,,,,,,,,,3.4,1.2,3.2*25\r\n"
$GPGSV,1,1,02,04,31,201,43,07,37,308,39,,,,,,,,*7B\r\n"
$GLGSV,1,1,02,74,49,061,36,85,27,157,41,,,,,,,,*65\r\n"
$GAGSV,1,1,03,02,71,021,40,07,34,298,40,08,43,228,36,,,,*5D\r\n"
$GNVTG,,T,,M,0.01,N,0.02,K,A*3E\r\n"
$GNGST,172737.00,1.459,,,,0.382,0.509,0.576*68\r\n"
$GNZDA,172737.00,02,02,2024,00,00*7B\r\n"
$GNRMC,172738.00,A,4220.2329085,N,07105.2106639,W,0.01,,020224,,,D*4F\r\n"
$GNGGA,172738.00,4220.2329085,N,07105.2106639,W,5,08,2.4,9.260,M,-28.727,M,1.0,0061*6B\r\
  \n"
$GPGSA,A,3,04,07,08,,,,,,,,,,3.9,2.4,3.1*37\r\n"
$GLGSA,A,3,74,75,85,,,,,,,,,,3.9,2.4,3.1*2C\r\n"
$GAGSA,A,3,02,07,,,,,,,,,,,3.9,2.4,3.1*28\r\n"
$GBGSA,A,3,,,,,,,,,,,,,3.9,2.4,3.1*2E\r\n"
$GPGSV,1,1,03,04,31,201,43,07,37,308,39,08,62,191,46,,,,*4D\r\n"
$GLGSV,1,1,03,74,49,061,38,75,49,322,35,85,27,157,42,,,,*53\r\n"
$GAGSV,1,1,02,02,71,021,40,07,34,298,40,,,,,,,,*6E\r\n"
$GNVTG,,T,,M,0.01,N,0.02,K,D*3B\r\n"
$GNGST,172738.00,6.096,,,,0.372,0.501,0.563*64\r\n"
$GNZDA,172738.00,02,02,2024,00,00*74\r\n"
$GNRMC,172739.00,A,4220.2329699,N,07105.2108648,W,0.01,,020224,,,D*4D\r\n"
$GNGGA,172739.00,4220.2329699,N,07105.2108648,W,5,09,1.3,9.138,M,-28.727,M,2.0,0061*61\r\
  \n"
$GPGSA,A,3,04,07,08,,,,,,,,,,3.4,1.3,3.1*3E\r\n"
$GLGSA,A,3,74,75,84,85,,,,,,,,,3.4,1.3,3.1*29\r\n"
$GAGSA,A,3,02,07,,,,,,,,,,,3.4,1.3,3.1*21\r\n"
$GBGSA,A,3,,,,,,,,,,,,,3.4,1.3,3.1*27\r\n"
$GPGSV,1,1,03,04,31,201,43,07,37,308,39,08,62,191,46,,,,*4D\r\n"
$GLGSV,1,1,04,74,49,061,37,75,49,322,35,84,48,083,35,85,27,157,41*65\r\n"
$GAGSV,1,1,02,02,71,021,40,07,34,298,40,,,,,,,,*6E\r\n"
$GNVTG,,T,,M,0.01,N,0.02,K,D*3B\r\n"
$GNGST,172739.00,8.857,,,,0.363,0.489,0.552*6D\r\n"
$GNZDA,172739.00,02,02,2024,00,00*75\r\n"
$GNRMC,172740.00,A,4220.2330028,N,07105.2110166,W,0.01,,020224,,,D*45\r\n"
$GNGGA,172740.00,4220.2330028,N,07105.2110166,W,5,09,1.3,9.000,M,-28.727,M,1.0,0061*60\r\
  \n"
$GPGSA,A,3,04,07,08,,,,,,,,,,3.4,1.3,3.1*3E\r\n"
$GLGSA,A,3,74,75,84,85,,,,,,,,,3.4,1.3,3.1*29\r\n"
$GAGSA,A,3,02,07,,,,,,,,,,,3.4,1.3,3.1*21\r\n"
$GBGSA,A,3,,,,,,,,,,,,,3.4,1.3,3.1*27\r\n"
$GPGSV,1,1,03,04,31,201,44,07,37,308,39,08,62,191,46,,,,*4A\r\n"
$GLGSV,1,1,04,74,49,061,38,75,49,322,36,84,48,083,35,85,27,157,40*68\r\n"
$GAGSV,1,1,02,02,71,021,40,07,34,298,40,,,,,,,,*6E\r\n"
$GNVTG,,T,,M,0.01,N,0.02,K,D*3B\r\n"
$GNGST,172740.00,8.631,,,,0.355,0.480,0.540*62\r\n"
$GNZDA,172740.00,02,02,2024,00,00*7B\r\n"
$GNRMC,172741.00,A,4220.2330033,N,07105.2110514,W,0.01,,020224,,,D*4F\r\n"
$GNGGA,172741.00,4220.2330033,N,07105.2110514,W,5,08,2.4,8.908,M,-28.727,M,1.0,0061*6F\r\
  \n"
$GPGSA,A,3,04,07,08,,,,,,,,,,3.9,2.4,3.1*37\r\n"
$GLGSA,A,3,74,75,85,,,,,,,,,,3.9,2.4,3.1*2C\r\n"
$GAGSA,A,3,02,07,,,,,,,,,,,3.9,2.4,3.1*28\r\n"
$GBGSA,A,3,,,,,,,,,,,,,3.9,2.4,3.1*2E\r\n"
$GPGSV,1,1,03,04,31,201,44,07,37,308,38,08,62,191,46,,,,*4B\r\n"
$GLGSV,1,1,03,74,49,061,37,75,49,322,37,85,27,157,40,,,,*5C\r\n"
$GAGSV,1,1,02,02,71,021,40,07,34,298,40,,,,,,,,*6E\r\n"
$GNVTG,,T,,M,0.01,N,0.02,K,D*3B\r\n"
$GNGST,172741.00,5.470,,,,0.347,0.474,0.530*66\r\n"
$GNZDA,172741.00,02,02,2024,00,00*7A\r\n"
$GNRMC,172742.00,A,4220.2330240,N,07105.2111864,W,0.01,,020224,,,D*41\r\n"
$GNGGA,172742.00,4220.2330240,N,07105.2111864,W,5,10,1.1,8.804,M,-28.727,M,2.0,0061*60\r\
  \n"
$GPGSA,A,3,04,07,08,26,,,,,,,,,2.5,1.1,2.2*3A\r\n"
$GLGSA,A,3,74,75,84,85,,,,,,,,,2.5,1.1,2.2*29\r\n"
$GAGSA,A,3,02,07,,,,,,,,,,,2.5,1.1,2.2*21\r\n"
$GBGSA,A,3,,,,,,,,,,,,,2.5,1.1,2.2*27\r\n"
$GPGSV,1,1,04,04,31,201,44,07,37,308,39,08,62,191,46,26,16,078,35*77\r\n"
$GLGSV,1,1,04,74,49,061,37,75,49,322,38,84,48,083,35,85,27,157,40*69\r\n"
$GAGSV,1,1,02,02,71,021,39,07,34,298,40,,,,,,,,*60\r\n"
$GNVTG,,T,,M,0.01,N,0.02,K,D*3B\r\n"
$GNGST,172742.00,7.233,,,,0.340,0.464,0.518*6A\r\n"
$GNZDA,172742.00,02,02,2024,00,00*79\r\n"
$GNRMC,172743.00,A,4220.2330341,N,07105.2112970,W,0.01,,020224,,,D*47\r\n"
$GNGGA,172743.00,4220.2330341,N,07105.2112970,W,5,10,1.1,8.716,M,-28.727,M,1.0,0061*69\r\
  \n"
$GPGSA,A,3,04,07,08,26,,,,,,,,,2.5,1.1,2.2*3A\r\n"
$GLGSA,A,3,74,75,84,85,,,,,,,,,2.5,1.1,2.2*29\r\n"
$GAGSA,A,3,02,07,,,,,,,,,,,2.5,1.1,2.2*21\r\n"
$GBGSA,A,3,,,,,,,,,,,,,2.5,1.1,2.2*27\r\n"
$GPGSV,1,1,04,04,31,201,44,07,37,308,39,08,62,191,45,26,16,078,35*74\r\n"
$GLGSV,1,1,04,74,49,061,37,75,49,322,39,84,48,083,35,85,27,157,39*66\r\n"
$GAGSV,1,1,02,02,71,021,39,07,34,298,40,,,,,,,,*60\r\n"
$GNVTG,,T,,M,0.01,N,0.02,K,D*3B\r\n"
$GNGST,172743.00,6.594,,,,0.333,0.454,0.507*69\r\n"
$GNZDA,172743.00,02,02,2024,00,00*78\r\n"
$GNRMC,172744.00,A,4220.2330193,N,07105.2112972,W,0.01,,020224,,,D*4F\r\n"
$GNGGA,172744.00,4220.2330193,N,07105.2112972,W,5,08,2.4,8.684,M,-28.727,M,2.0,0061*67\r\
  \n"
$GPGSA,A,3,04,07,08,,,,,,,,,,3.9,2.4,3.1*37\r\n"
$GLGSA,A,3,74,75,85,,,,,,,,,,3.9,2.4,3.1*2C\r\n"
$GAGSA,A,3,02,07,,,,,,,,,,,3.9,2.4,3.1*28\r\n"
$GBGSA,A,3,,,,,,,,,,,,,3.9,2.4,3.1*2E\r\n"
$GPGSV,1,1,03,04,31,201,44,07,37,308,39,08,62,191,46,,,,*4A\r\n"
$GLGSV,1,1,03,74,49,061,36,75,49,322,37,85,27,157,37,,,,*5D\r\n"
$GAGSV,1,1,02,02,71,021,39,07,34,298,40,,,,,,,,*60\r\n"
$GNVTG,,T,,M,0.01,N,0.02,K,D*3B\r\n"
$GNGST,172744.00,3.980,,,,0.327,0.449,0.498*6C\r\n"
$GNZDA,172744.00,02,02,2024,00,00*7F\r\n"
$GNRMC,172745.00,A,4220.2330056,N,07105.2113008,W,0.01,,020224,,,D*43\r\n"
$GNGGA,172745.00,4220.2330056,N,07105.2113008,W,5,08,2.4,8.643,M,-28.727,M,1.0,0061*63\r\
  \n"
$GPGSA,A,3,04,07,08,,,,,,,,,,3.9,2.4,3.1*37\r\n"
$GLGSA,A,3,74,75,85,,,,,,,,,,3.9,2.4,3.1*2C\r\n"
$GAGSA,A,3,02,07,,,,,,,,,,,3.9,2.4,3.1*28\r\n"
$GBGSA,A,3,,,,,,,,,,,,,3.9,2.4,3.1*2E\r\n"
$GPGSV,1,1,03,04,31,201,44,07,37,308,39,08,62,191,46,,,,*4A\r\n"
$GLGSV,1,1,03,74,49,061,36,75,49,322,37,85,27,157,38,,,,*52\r\n"
$GAGSV,1,1,02,02,71,021,40,07,34,298,40,,,,,,,,*6E\r\n"
$GNVTG,,T,,M,0.01,N,0.02,K,D*3B\r\n"
$GNGST,172745.00,3.469,,,,0.321,0.445,0.489*6D\r\n"
$GNZDA,172745.00,02,02,2024,00,00*7E\r\n"
$GNRMC,172746.00,A,4220.2329941,N,07105.2113177,W,0.01,,020224,,,D*4E\r\n"
$GNGGA,172746.00,4220.2329941,N,07105.2113177,W,5,09,1.3,8.573,M,-28.727,M,1.0,0061*6B\r\
  \n"
$GPGSA,A,3,04,07,08,26,,,,,,,,,3.1,1.3,2.8*37\r\n"
$GLGSA,A,3,74,75,85,,,,,,,,,,3.1,1.3,2.8*28\r\n"
$GAGSA,A,3,02,07,,,,,,,,,,,3.1,1.3,2.8*2C\r\n"
$GBGSA,A,3,,,,,,,,,,,,,3.1,1.3,2.8*2A\r\n"
$GPGSV,1,1,04,04,31,201,44,07,37,308,39,08,62,191,46,26,16,078,35*77\r\n"
$GLGSV,1,1,03,74,49,061,36,75,49,322,37,85,27,157,38,,,,*52\r\n"
$GAGSV,1,1,02,02,71,021,40,07,34,298,40,,,,,,,,*6E\r\n"
$GNVTG,,T,,M,0.01,N,0.02,K,D*3B\r\n"
$GNGST,172746.00,3.229,,,,0.316,0.438,0.479*6D\r\n"
$GNZDA,172746.00,02,02,2024,00,00*7D\r\n"
$GNRMC,172747.00,A,4220.2330029,N,07105.2114082,W,0.01,,020224,,,D*4C\r\n"
$GNGGA,172747.00,4220.2330029,N,07105.2114082,W,5,09,1.3,8.464,M,-28.727,M,2.0,0061*6D\r\
  \n"
$GPGSA,A,3,04,07,08,,,,,,,,,,3.4,1.3,3.1*3E\r\n"
$GLGSA,A,3,74,75,84,85,,,,,,,,,3.4,1.3,3.1*29\r\n"
$GAGSA,A,3,02,07,,,,,,,,,,,3.4,1.3,3.1*21\r\n"
$GBGSA,A,3,,,,,,,,,,,,,3.4,1.3,3.1*27\r\n"
$GPGSV,1,1,03,04,31,201,44,07,37,308,39,08,62,191,46,,,,*4A\r\n"
$GLGSV,1,1,04,74,49,061,36,75,49,322,37,84,48,083,35,85,27,157,39*69\r\n"
$GAGSV,1,1,02,02,71,021,39,07,34,298,40,,,,,,,,*60\r\n"
$GNVTG,,T,,M,0.01,N,0.02,K,D*3B\r\n"
$GNGST,172747.00,5.926,,,,0.310,0.433,0.471*6B\r\n"
$GNZDA,172747.00,02,02,2024,00,00*7C\r\n"
$GNRMC,172748.00,A,4220.2330156,N,07105.2115129,W,0.01,,020224,,,D*4B\r\n"
$GNGGA,172748.00,4220.2330156,N,07105.2115129,W,5,10,1.1,8.376,M,-28.727,M,1.0,0061*67\r\
  \n"
$GPGSA,A,3,04,07,08,26,,,,,,,,,2.5,1.1,2.2*3A\r\n"
$GLGSA,A,3,74,75,84,85,,,,,,,,,2.5,1.1,2.2*29\r\n"
$GAGSA,A,3,02,07,,,,,,,,,,,2.5,1.1,2.2*21\r\n"
$GBGSA,A,3,,,,,,,,,,,,,2.5,1.1,2.2*27\r\n"
$GPGSV,1,1,04,04,31,201,44,07,37,308,39,08,62,191,46,26,16,078,35*77\r\n"
$GLGSV,1,1,04,74,49,061,36,75,49,322,37,84,48,083,35,85,27,157,37*67\r\n"
$GAGSV,1,1,02,02,71,021,39,07,34,298,40,,,,,,,,*60\r\n"
$GNVTG,,T,,M,0.01,N,0.02,K,D*3B\r\n"
$GNGST,172748.00,5.890,,,,0.305,0.425,0.461*6A\r\n"
$GNZDA,172748.00,02,02,2024,00,00*73\r\n"
$GNRMC,172749.00,A,4220.2330062,N,07105.2115236,W,0.01,,020224,,,D*41\r\n"
$GNGGA,172749.00,4220.2330062,N,07105.2115236,W,5,09,1.3,8.312,M,-28.727,M,2.0,0061*66\r\
  \n"
$GPGSA,A,3,04,07,08,26,,,,,,,,,3.1,1.3,2.8*37\r\n"
$GLGSA,A,3,74,75,85,,,,,,,,,,3.1,1.3,2.8*28\r\n"
$GAGSA,A,3,02,07,,,,,,,,,,,3.1,1.3,2.8*2C\r\n"
$GBGSA,A,3,,,,,,,,,,,,,3.1,1.3,2.8*2A\r\n"
$GPGSV,1,1,04,04,31,201,44,07,37,308,39,08,62,191,46,26,16,078,35*77\r\n"
$GLGSV,1,1,03,74,49,061,36,75,49,322,37,85,27,157,37,,,,*5D\r\n"
$GAGSV,1,1,02,02,71,021,39,07,34,298,41,,,,,,,,*61\r\n"
$GNVTG,,T,,M,0.01,N,0.02,K,D*3B\r\n"
$GNGST,172749.00,3.334,,,,0.300,0.420,0.453*69\r\n"
$GNZDA,172749.00,02,02,2024,00,00*72\r\n"
$GNRMC,172750.00,A,4220.2330041,N,07105.2115382,W,0.01,,020224,,,D*46\r\n"
$GNGGA,172750.00,4220.2330041,N,07105.2115382,W,5,09,1.3,8.248,M,-28.727,M,1.0,0061*6C\r\
  \n"
$GPGSA,A,3,04,07,08,26,,,,,,,,,3.1,1.3,2.8*37\r\n"
$GLGSA,A,3,74,75,85,,,,,,,,,,3.1,1.3,2.8*28\r\n"
$GAGSA,A,3,02,07,,,,,,,,,,,3.1,1.3,2.8*2C\r\n"
$GBGSA,A,3,,,,,,,,,,,,,3.1,1.3,2.8*2A\r\n"
$GPGSV,1,1,04,04,31,201,44,07,37,308,38,08,62,191,46,26,16,078,35*76\r\n"
$GLGSV,1,1,03,74,49,061,36,75,49,322,36,85,27,157,37,,,,*5C\r\n"
$GAGSV,1,1,02,02,71,021,39,07,34,298,41,,,,,,,,*61\r\n"
$GNVTG,,T,,M,0.01,N,0.02,K,D*3B\r\n"
$GNGST,172750.00,3.261,,,,0.296,0.414,0.444*6F\r\n"
$GNZDA,172750.00,02,02,2024,00,00*7A\r\n"
$GNRMC,172751.00,A,4220.2330106,N,07105.2115609,W,0.01,,020224,,,D*43\r\n"
$GNGGA,172751.00,4220.2330106,N,07105.2115609,W,5,09,1.3,8.178,M,-28.727,M,1.0,0061*69\r\
  \n"
$GPGSA,A,3,04,07,08,26,,,,,,,,,3.1,1.3,2.8*37\r\n"
$GLGSA,A,3,74,75,85,,,,,,,,,,3.1,1.3,2.8*28\r\n"
$GAGSA,A,3,02,07,,,,,,,,,,,3.1,1.3,2.8*2C\r\n"
$GBGSA,A,3,,,,,,,,,,,,,3.1,1.3,2.8*2A\r\n"
$GPGSV,1,1,04,04,31,201,44,07,37,308,38,08,62,191,46,26,16,078,36*75\r\n"
$GLGSV,1,1,03,74,49,061,36,75,49,322,35,85,27,157,38,,,,*50\r\n"
$GAGSV,1,1,02,02,71,021,39,07,34,298,41,,,,,,,,*61\r\n"
$GNVTG,,T,,M,0.01,N,0.02,K,D*3B\r\n"
$GNGST,172751.00,3.386,,,,0.291,0.409,0.436*68\r\n"
$GNZDA,172751.00,02,02,2024,00,00*7B\r\n"
$GNRMC,172752.00,A,4220.2330241,N,07105.2115907,W,0.01,,020224,,,D*41\r\n"
$GNGGA,172752.00,4220.2330241,N,07105.2115907,W,5,09,1.3,8.106,M,-28.727,M,2.0,0061*61\r\
  \n"
$GPGSA,A,3,04,07,08,26,,,,,,,,,3.1,1.3,2.8*37\r\n"
$GLGSA,A,3,74,75,85,,,,,,,,,,3.1,1.3,2.8*28\r\n"
$GAGSA,A,3,02,07,,,,,,,,,,,3.1,1.3,2.8*2C\r\n"
$GBGSA,A,3,,,,,,,,,,,,,3.1,1.3,2.8*2A\r\n"
$GPGSV,1,1,04,04,31,201,44,07,37,308,38,08,62,191,46,26,16,078,35*76\r\n"
$GLGSV,1,1,03,74,49,061,36,75,49,322,35,85,27,157,38,,,,*50\r\n"
$GAGSV,1,1,02,02,71,021,39,07,34,298,40,,,,,,,,*60\r\n"
$GNVTG,,T,,M,0.01,N,0.02,K,D*3B\r\n"
$GNGST,172752.00,3.552,,,,0.287,0.405,0.428*60\r\n"
$GNZDA,172752.00,02,02,2024,00,00*78\r\n"
$GNRMC,172753.00,A,4220.2330468,N,07105.2116269,W,0.01,,020224,,,D*4D\r\n"
$GNGGA,172753.00,4220.2330468,N,07105.2116269,W,5,07,1.5,8.047,M,-28.727,M,1.0,0061*62\r\
  \n"
$GPGSA,A,3,04,07,08,26,,,,,,,,,3.4,1.5,3.1*3C\r\n"
$GLGSA,A,3,85,,,,,,,,,,,,3.4,1.5,3.1*22\r\n"
$GAGSA,A,3,02,07,,,,,,,,,,,3.4,1.5,3.1*27\r\n"
$GBGSA,A,3,,,,,,,,,,,,,3.4,1.5,3.1*21\r\n"
$GPGSV,1,1,04,04,31,201,44,07,37,308,38,08,62,191,46,26,16,078,36*75\r\n"
$GLGSV,1,1,01,85,27,157,38,,,,,,,,,,,,*54\r\n"
$GAGSV,1,1,02,02,71,021,39,07,34,298,40,,,,,,,,*60\r\n"
$GNVTG,,T,,M,0.01,N,0.02,K,D*3B\r\n"
$GNGST,172753.00,4.030,,,,0.284,0.401,0.421*69\r\n"
$GNZDA,172753.00,02,02,2024,00,00*79\r\n"
$GNRMC,172754.00,A,4220.2330813,N,07105.2116733,W,0.01,,020224,,,D*40\r\n"
$GNGGA,172754.00,4220.2330813,N,07105.2116733,W,5,08,1.5,7.995,M,-28.727,M,2.0,0061*6A\r\
  \n"
$GPGSA,A,3,04,07,08,26,,,,,,,,,3.4,1.5,3.1*3C\r\n"
$GLGSA,A,3,74,85,,,,,,,,,,,3.4,1.5,3.1*21\r\n"
$GAGSA,A,3,02,07,,,,,,,,,,,3.4,1.5,3.1*27\r\n"
$GBGSA,A,3,,,,,,,,,,,,,3.4,1.5,3.1*21\r\n"
$GPGSV,1,1,04,04,31,201,43,07,37,308,36,08,62,191,46,26,16,078,35*7F\r\n"
$GLGSV,1,1,02,74,49,061,38,85,27,157,39,,,,,,,,*64\r\n"
$GAGSV,1,1,02,02,71,021,39,07,34,298,39,,,,,,,,*6E\r\n"
$GNVTG,,T,,M,0.01,N,0.02,K,D*3B\r\n"
$GNGST,172754.00,4.073,,,,0.280,0.397,0.414*63\r\n"
$GNZDA,172754.00,02,02,2024,00,00*7E\r\n"
$GNRMC,172755.00,A,4220.2330968,N,07105.2117179,W,0.01,,020224,,,D*45\r\n"
$GNGGA,172755.00,4220.2330968,N,07105.2117179,W,5,08,1.5,7.864,M,-28.727,M,1.0,0061*63\r\
  \n"
$GPGSA,A,3,04,07,08,26,,,,,,,,,3.4,1.5,3.1*3C\r\n"
$GLGSA,A,3,74,85,,,,,,,,,,,3.4,1.5,3.1*21\r\n"
$GAGSA,A,3,02,07,,,,,,,,,,,3.4,1.5,3.1*27\r\n"
$GBGSA,A,3,,,,,,,,,,,,,3.4,1.5,3.1*21\r\n"
$GPGSV,1,1,04,04,31,201,43,07,37,308,36,08,62,191,46,26,16,078,35*7F\r\n"
$GLGSV,1,1,02,74,49,061,37,85,27,157,37,,,,,,,,*65\r\n"
$GAGSV,1,1,02,02,71,021,39,07,34,298,39,,,,,,,,*6E\r\n"
$GNVTG,,T,,M,0.01,N,0.02,K,D*3B\r\n"
$GNGST,172755.00,4.334,,,,0.277,0.394,0.407*6B\r\n"
$GNZDA,172755.00,02,02,2024,00,00*7F\r\n"
$GNRMC,172756.00,A,4220.2331310,N,07105.2117772,W,0.01,,020224,,,D*4F\r\n"
$GNGGA,172756.00,4220.2331310,N,07105.2117772,W,5,08,1.5,7.709,M,-28.727,M,1.0,0061*6D\r\
  \n"
$GPGSA,A,3,04,07,08,26,,,,,,,,,3.4,1.5,3.1*3C\r\n"
$GLGSA,A,3,74,85,,,,,,,,,,,3.4,1.5,3.1*21\r\n"
$GAGSA,A,3,02,07,,,,,,,,,,,3.4,1.5,3.1*27\r\n"
$GBGSA,A,3,,,,,,,,,,,,,3.4,1.5,3.1*21\r\n"
$GPGSV,1,1,04,04,31,201,43,07,37,308,37,08,62,191,46,26,16,078,35*7E\r\n"
$GLGSV,1,1,02,74,49,061,36,85,27,157,39,,,,,,,,*6A\r\n"
$GAGSV,1,1,02,02,71,022,39,07,34,298,40,,,,,,,,*63\r\n"
$GNVTG,,T,,M,0.01,N,0.02,K,D*3B\r\n"
$GNGST,172756.00,4.875,,,,0.273,0.391,0.400*60\r\n"
$GNZDA,172756.00,02,02,2024,00,00*7C\r\n"
$GNRMC,172757.00,A,4220.2331540,N,07105.2118707,W,0.01,,020224,,,D*40\r\n"
$GNGGA,172757.00,4220.2331540,N,07105.2118707,W,5,09,1.3,7.531,M,-28.727,M,2.0,0061*6F\r\
  \n"
$GPGSA,A,3,04,07,08,16,26,,,,,,,,2.9,1.3,2.6*37\r\n"
$GLGSA,A,3,74,85,,,,,,,,,,,2.9,1.3,2.6*2D\r\n"
$GAGSA,A,3,02,07,,,,,,,,,,,2.9,1.3,2.6*2B\r\n"
$GBGSA,A,3,,,,,,,,,,,,,2.9,1.3,2.6*2D\r\n"
$GPGSV,2,1,05,04,31,201,42,07,37,308,37,08,62,191,45,16,41,061,35*77\r\n"
$GPGSV,2,2,05,26,16,078,36,,,,,,,,,,,,*45\r\n"
$GLGSV,1,1,02,74,49,061,38,85,27,157,39,,,,,,,,*64\r\n"
$GAGSV,1,1,02,02,71,022,39,07,34,298,40,,,,,,,,*63\r\n"
$GNVTG,,T,,M,0.01,N,0.02,K,D*3B\r\n"
$GNGST,172757.00,4.915,,,,0.270,0.383,0.392*6A\r\n"
$GNZDA,172757.00,02,02,2024,00,00*7D\r\n"
$GNRMC,172758.00,A,4220.2331875,N,07105.2119410,W,0.01,,020224,,,D*40\r\n"
$GNGGA,172758.00,4220.2331875,N,07105.2119410,W,5,08,1.5,7.387,M,-28.727,M,1.0,0061*60\r\
  \n"
$GPGSA,A,3,04,07,08,26,,,,,,,,,3.4,1.5,3.1*3C\r\n"
$GLGSA,A,3,74,85,,,,,,,,,,,3.4,1.5,3.1*21\r\n"
$GAGSA,A,3,02,07,,,,,,,,,,,3.4,1.5,3.1*27\r\n"
$GBGSA,A,3,,,,,,,,,,,,,3.4,1.5,3.1*21\r\n"
$GPGSV,1,1,04,04,31,201,41,07,37,308,36,08,62,191,44,26,16,078,35*7F\r\n"
$GLGSV,1,1,02,74,49,061,37,85,27,157,39,,,,,,,,*6B\r\n"
$GAGSV,1,1,02,02,71,022,37,07,34,298,38,,,,,,,,*62\r\n"
$GNVTG,,T,,M,0.01,N,0.02,K,D*3B\r\n"
$GNGST,172758.00,5.080,,,,0.267,0.380,0.386*61\r\n"
$GNZDA,172758.00,02,02,2024,00,00*72\r\n"
$GNRMC,172759.00,A,4220.2332017,N,07105.2120456,W,0.01,,020224,,,D*46\r\n"
$GNGGA,172759.00,4220.2332017,N,07105.2120456,W,5,09,1.3,7.299,M,-28.727,M,2.0,0061*6C\r\
  \n"
$GPGSA,A,3,04,07,08,16,26,,,,,,,,2.9,1.3,2.6*37\r\n"
$GLGSA,A,3,74,85,,,,,,,,,,,2.9,1.3,2.6*2D\r\n"
$GAGSA,A,3,02,07,,,,,,,,,,,2.9,1.3,2.6*2B\r\n"
$GBGSA,A,3,,,,,,,,,,,,,2.9,1.3,2.6*2D\r\n"
$GPGSV,2,1,05,04,31,201,41,07,37,308,35,08,62,191,45,16,41,061,35*76\r\n"
$GPGSV,2,2,05,26,16,078,35,,,,,,,,,,,,*46\r\n"
$GLGSV,1,1,02,74,49,061,37,85,27,157,38,,,,,,,,*6A\r\n"
$GAGSV,1,1,02,02,71,022,38,07,34,298,39,,,,,,,,*6C\r\n"
$GNVTG,,T,,M,0.01,N,0.02,K,D*3B\r\n"
$GNGST,172759.00,4.940,,,,0.264,0.373,0.379*6B\r\n"
$GNZDA,172759.00,02,02,2024,00,00*73\r\n"
$GNRMC,172800.00,A,4220.2332202,N,07105.2121582,W,0.01,,020224,,,D*4A\r\n"
$GNGGA,172800.00,4220.2332202,N,07105.2121582,W,5,09,1.3,7.184,M,-28.727,M,1.0,0061*6C\r\
  \n"
$GPGSA,A,3,04,07,08,16,26,,,,,,,,2.9,1.3,2.6*37\r\n"
$GLGSA,A,3,74,85,,,,,,,,,,,2.9,1.3,2.6*2D\r\n"
$GAGSA,A,3,02,07,,,,,,,,,,,2.9,1.3,2.6*2B\r\n"
$GBGSA,A,3,,,,,,,,,,,,,2.9,1.3,2.6*2D\r\n"
$GPGSV,2,1,05,04,31,201,41,07,37,308,35,08,62,191,44,16,41,061,35*77\r\n"
$GPGSV,2,2,05,26,16,078,35,,,,,,,,,,,,*46\r\n"
$GLGSV,1,1,02,74,49,061,37,85,27,156,37,,,,,,,,*64\r\n"
$GAGSV,1,1,02,02,71,022,38,07,34,298,39,,,,,,,,*6C\r\n"
$GNVTG,,T,,M,0.01,N,0.02,K,D*3B\r\n"
$GNGST,172800.00,5.012,,,,0.260,0.367,0.372*6D\r\n"
$GNZDA,172800.00,02,02,2024,00,00*70\r\n"
$GNRMC,172801.00,A,4220.2332416,N,07105.2122644,W,0.01,,020224,,,D*42\r\n"
$GNGGA,172801.00,4220.2332416,N,07105.2122644,W,5,09,1.3,7.091,M,-28.727,M,1.0,0061*61\r\
  \n"
$GPGSA,A,3,04,07,08,16,26,,,,,,,,2.9,1.3,2.6*37\r\n"
$GLGSA,A,3,74,85,,,,,,,,,,,2.9,1.3,2.6*2D\r\n"
$GAGSA,A,3,02,07,,,,,,,,,,,2.9,1.3,2.6*2B\r\n"
$GBGSA,A,3,,,,,,,,,,,,,2.9,1.3,2.6*2D\r\n"
$GPGSV,2,1,05,04,31,201,41,07,37,308,35,08,62,191,45,16,41,061,35*76\r\n"
$GPGSV,2,2,05,26,16,078,36,,,,,,,,,,,,*45\r\n"
$GLGSV,1,1,02,74,49,061,36,85,27,156,38,,,,,,,,*6A\r\n"
$GAGSV,1,1,02,02,71,022,38,07,34,298,39,,,,,,,,*6C\r\n"
$GNVTG,,T,,M,0.01,N,0.02,K,D*3B\r\n"
$GNGST,172801.00,4.828,,,,0.257,0.361,0.365*68\r\n"
$GNZDA,172801.00,02,02,2024,00,00*71\r\n"
$GNRMC,172802.00,A,4220.2332667,N,07105.2123696,W,0.01,,020224,,,D*4B\r\n"
$GNGGA,172802.00,4220.2332667,N,07105.2123696,W,5,09,1.3,7.000,M,-28.727,M,2.0,0061*63\r\
  \n"
$GPGSA,A,3,04,07,08,16,26,,,,,,,,2.9,1.3,2.6*37\r\n"
$GLGSA,A,3,74,85,,,,,,,,,,,2.9,1.3,2.6*2D\r\n"
$GAGSA,A,3,02,07,,,,,,,,,,,2.9,1.3,2.6*2B\r\n"
$GBGSA,A,3,,,,,,,,,,,,,2.9,1.3,2.6*2D\r\n"
$GPGSV,2,1,05,04,31,201,40,07,37,308,36,08,62,191,45,16,41,061,35*74\r\n"
$GPGSV,2,2,05,26,16,078,36,,,,,,,,,,,,*45\r\n"
$GLGSV,1,1,02,74,49,061,36,85,27,156,39,,,,,,,,*6B\r\n"
$GAGSV,1,1,02,02,71,022,38,07,34,298,39,,,,,,,,*6C\r\n"
$GNVTG,,T,,M,0.01,N,0.02,K,D*3B\r\n"
$GNGST,172802.00,4.537,,,,0.254,0.355,0.359*63\r\n"
$GNZDA,172802.00,02,02,2024,00,00*72\r\n"
$GNRMC,172803.00,A,4220.2332834,N,07105.2124539,W,0.01,,020224,,,D*43\r\n"
$GNGGA,172803.00,4220.2332834,N,07105.2124539,W,5,10,1.1,6.958,M,-28.727,M,1.0,0061*67\r\
  \n"
$GPGSA,A,3,04,07,08,16,26,,,,,,,,2.7,1.1,2.5*38\r\n"
$GLGSA,A,3,74,75,85,,,,,,,,,,2.7,1.1,2.5*20\r\n"
$GAGSA,A,3,02,07,,,,,,,,,,,2.7,1.1,2.5*24\r\n"
$GBGSA,A,3,,,,,,,,,,,,,2.7,1.1,2.5*22\r\n"
$GPGSV,2,1,05,04,31,201,41,07,37,308,36,08,62,191,45,16,41,061,36*76\r\n"
$GPGSV,2,2,05,26,16,078,36,,,,,,,,,,,,*45\r\n"
$GLGSV,1,1,03,74,49,061,37,75,49,322,35,85,27,156,39,,,,*51\r\n"
$GAGSV,1,1,02,02,71,022,39,07,34,298,40,,,,,,,,*63\r\n"
$GNVTG,,T,,M,0.01,N,0.02,K,D*3B\r\n"
$GNGST,172803.00,3.754,,,,0.251,0.349,0.353*60\r\n"
$GNZDA,172803.00,02,02,2024,00,00*73\r\n"
$GNRMC,172804.00,A,4220.2333146,N,07105.2125333,W,0.01,,020224,,,D*44\r\n"
$GNGGA,172804.00,4220.2333146,N,07105.2125333,W,5,10,1.1,6.861,M,-28.727,M,2.0,0061*68\r\
  \n"
$GPGSA,A,3,04,07,08,16,26,,,,,,,,2.7,1.1,2.5*38\r\n"
$GLGSA,A,3,74,75,85,,,,,,,,,,2.7,1.1,2.5*20\r\n"
$GAGSA,A,3,02,07,,,,,,,,,,,2.7,1.1,2.5*24\r\n"
$GBGSA,A,3,,,,,,,,,,,,,2.7,1.1,2.5*22\r\n"
$GPGSV,2,1,05,04,31,201,43,07,37,308,38,08,62,191,47,16,41,061,37*79\r\n"
$GPGSV,2,2,05,26,16,078,39,,,,,,,,,,,,*4A\r\n"
$GLGSV,1,1,03,74,49,061,37,75,49,322,35,85,27,156,40,,,,*5F\r\n"
$GAGSV,1,1,02,02,71,022,41,07,34,298,41,,,,,,,,*6D\r\n"
$GNVTG,,T,,M,0.01,N,0.02,K,D*3B\r\n"
$GNGST,172804.00,3.550,,,,0.247,0.343,0.347*69\r\n"
$GNZDA,172804.00,02,02,2024,00,00*74\r\n"
$GNRMC,172805.00,A,4220.2333318,N,07105.2126033,W,0.01,,020224,,,D*4C\r\n"
$GNGGA,172805.00,4220.2333318,N,07105.2126033,W,5,10,1.1,6.842,M,-28.727,M,1.0,0061*62\r\
  \n"
$GPGSA,A,3,04,07,08,16,26,,,,,,,,2.7,1.1,2.5*38\r\n"
$GLGSA,A,3,74,75,85,,,,,,,,,,2.7,1.1,2.5*20\r\n"
$GAGSA,A,3,02,07,,,,,,,,,,,2.7,1.1,2.5*24\r\n"
$GBGSA,A,3,,,,,,,,,,,,,2.7,1.1,2.5*22\r\n"
$GPGSV,2,1,05,04,31,201,42,07,37,308,37,08,62,191,46,16,41,061,36*77\r\n"
$GPGSV,2,2,05,26,16,078,37,,,,,,,,,,,,*44\r\n"
$GLGSV,1,1,03,74,49,061,36,75,49,322,36,85,27,156,40,,,,*5D\r\n"
$GAGSV,1,1,02,02,71,022,39,07,34,298,39,,,,,,,,*6D\r\n"
$GNVTG,,T,,M,0.01,N,0.02,K,D*3B\r\n"
$GNGST,172805.00,3.426,,,,0.244,0.338,0.341*61\r\n"
$GNZDA,172805.00,02,02,2024,00,00*75\r\n"
$GNRMC,172806.00,A,4220.2333526,N,07105.2126861,W,0.01,,020224,,,D*4B\r\n"
$GNGGA,172806.00,4220.2333526,N,07105.2126861,W,5,10,1.1,6.785,M,-28.727,M,1.0,0061*61\r\
  \n"
$GPGSA,A,3,04,07,08,16,26,,,,,,,,2.7,1.1,2.5*38\r\n"
$GLGSA,A,3,74,75,85,,,,,,,,,,2.7,1.1,2.5*20\r\n"
$GAGSA,A,3,02,07,,,,,,,,,,,2.7,1.1,2.5*24\r\n"
$GBGSA,A,3,,,,,,,,,,,,,2.7,1.1,2.5*22\r\n"
$GPGSV,2,1,05,04,31,201,41,07,37,308,37,08,62,191,46,16,41,061,37*75\r\n"
$GPGSV,2,2,05,26,16,078,36,,,,,,,,,,,,*45\r\n"
$GLGSV,1,1,03,74,49,061,36,75,49,322,36,85,27,156,40,,,,*5D\r\n"
$GAGSV,1,1,02,02,71,022,40,07,34,298,39,,,,,,,,*63\r\n"
$GNVTG,,T,,M,0.01,N,0.02,K,D*3B\r\n"
$GNGST,172806.00,3.324,,,,0.241,0.333,0.336*69\r\n"
$GNZDA,172806.00,02,02,2024,00,00*76\r\n"
$GNRMC,172807.00,A,4220.2333771,N,07105.2127538,W,0.01,,020224,,,D*4A\r\n"
$GNGGA,172807.00,4220.2333771,N,07105.2127538,W,5,10,1.1,6.707,M,-28.727,M,2.0,0061*69\r\
  \n"
$GPGSA,A,3,04,07,08,16,26,,,,,,,,2.7,1.1,2.5*38\r\n"
$GLGSA,A,3,74,75,85,,,,,,,,,,2.7,1.1,2.5*20\r\n"
$GAGSA,A,3,02,07,,,,,,,,,,,2.7,1.1,2.5*24\r\n"
$GBGSA,A,3,,,,,,,,,,,,,2.7,1.1,2.5*22\r\n"
$GPGSV,2,1,05,04,31,201,42,07,37,308,38,08,62,191,47,16,41,061,37*78\r\n"
$GPGSV,2,2,05,26,16,078,38,,,,,,,,,,,,*4B\r\n"
$GLGSV,1,1,03,74,49,061,36,75,49,322,37,85,27,156,41,,,,*5D\r\n"
$GAGSV,1,1,02,02,71,022,41,07,34,298,41,,,,,,,,*6D\r\n"
$GNVTG,,T,,M,0.01,N,0.02,K,D*3B\r\n"
$GNGST,172807.00,3.467,,,,0.238,0.328,0.330*6A\r\n"
$GNZDA,172807.00,02,02,2024,00,00*77\r\n"
$GNRMC,172808.00,A,4220.2334066,N,07105.2127991,W,0.01,,020224,,,D*4C\r\n"
$GNGGA,172808.00,4220.2334066,N,07105.2127991,W,5,10,1.1,6.584,M,-28.727,M,1.0,0061*65\r\
  \n"
$GPGSA,A,3,04,07,08,16,26,,,,,,,,2.7,1.1,2.5*38\r\n"
$GLGSA,A,3,74,75,85,,,,,,,,,,2.7,1.1,2.5*20\r\n"
$GAGSA,A,3,02,07,,,,,,,,,,,2.7,1.1,2.5*24\r\n"
$GBGSA,A,3,,,,,,,,,,,,,2.7,1.1,2.5*22\r\n"
$GPGSV,2,1,05,04,31,201,43,07,37,308,38,08,62,191,48,16,41,061,39*78\r\n"
$GPGSV,2,2,05,26,16,078,39,,,,,,,,,,,,*4A\r\n"
$GLGSV,1,1,03,74,49,061,37,75,49,322,38,85,27,156,42,,,,*50\r\n"
$GAGSV,1,1,02,02,71,022,42,07,34,298,42,,,,,,,,*6D\r\n"
$GNVTG,,T,,M,0.01,N,0.02,K,D*3B\r\n"
$GNGST,172808.00,3.710,,,,0.235,0.323,0.325*64\r\n"
$GNZDA,172808.00,02,02,2024,00,00*78\r\n"
$GNRMC,172809.00,A,4220.2334355,N,07105.2128530,W,0.01,,020224,,,D*46\r\n"
$GNGGA,172809.00,4220.2334355,N,07105.2128530,W,5,10,1.1,6.467,M,-28.727,M,2.0,0061*60\r\
  \n"
$GPGSA,A,3,04,07,08,16,26,,,,,,,,2.7,1.1,2.5*38\r\n"
$GLGSA,A,3,74,75,85,,,,,,,,,,2.7,1.1,2.5*20\r\n"
$GAGSA,A,3,02,07,,,,,,,,,,,2.7,1.1,2.5*24\r\n"
$GBGSA,A,3,,,,,,,,,,,,,2.7,1.1,2.5*22\r\n"
$GPGSV,2,1,05,04,31,201,42,07,37,308,38,08,62,191,48,16,41,061,39*79\r\n"
$GPGSV,2,2,05,26,16,078,38,,,,,,,,,,,,*4B\r\n"
$GLGSV,1,1,03,74,49,061,37,75,49,322,37,85,27,156,42,,,,*5F\r\n"
$GAGSV,1,1,02,02,71,022,41,07,34,298,41,,,,,,,,*6D\r\n"
$GNVTG,,T,,M,0.01,N,0.02,K,D*3B\r\n"
$GNGST,172809.00,3.662,,,,0.232,0.318,0.320*6B\r\n"
$GNZDA,172809.00,02,02,2024,00,00*79\r\n"
$GNRMC,172810.00,A,4220.2334627,N,07105.2129168,W,0.01,,020224,,,D*46\r\n"
$GNGGA,172810.00,4220.2334627,N,07105.2129168,W,5,10,1.1,6.374,M,-28.727,M,1.0,0061*66\r\
  \n"
$GPGSA,A,3,04,07,08,16,26,,,,,,,,2.7,1.1,2.5*38\r\n"
$GLGSA,A,3,74,75,85,,,,,,,,,,2.7,1.1,2.5*20\r\n"
$GAGSA,A,3,02,07,,,,,,,,,,,2.7,1.1,2.5*24\r\n"
$GBGSA,A,3,,,,,,,,,,,,,2.7,1.1,2.5*22\r\n"
$GPGSV,2,1,05,04,31,201,40,07,37,308,36,08,62,191,46,16,41,061,37*75\r\n"
$GPGSV,2,2,05,26,16,078,36,,,,,,,,,,,,*45\r\n"
$GLGSV,1,1,03,74,49,061,37,75,49,322,37,85,27,156,42,,,,*5F\r\n"
$GAGSV,1,1,02,02,71,022,39,07,34,298,39,,,,,,,,*6D\r\n"
$GNVTG,,T,,M,0.01,N,0.02,K,D*3B\r\n"
$GNGST,172810.00,3.549,,,,0.229,0.314,0.315*69\r\n"
$GNZDA,172810.00,02,02,2024,00,00*71\r\n"
$GNRMC,172811.00,A,4220.2334940,N,07105.2129818,W,0.01,,020224,,,D*47\r\n"
$GNGGA,172811.00,4220.2334940,N,07105.2129818,W,5,10,1.1,6.324,M,-28.727,M,1.0,0061*62\r\
  \n"
$GPGSA,A,3,04,07,08,16,26,,,,,,,,2.7,1.1,2.5*38\r\n"
$GLGSA,A,3,74,75,85,,,,,,,,,,2.7,1.1,2.5*20\r\n"
$GAGSA,A,3,02,07,,,,,,,,,,,2.7,1.1,2.5*24\r\n"
$GBGSA,A,3,,,,,,,,,,,,,2.7,1.1,2.5*22\r\n"
$GPGSV,2,1,05,04,31,201,40,07,37,308,36,08,62,191,46,16,41,061,37*75\r\n"
$GPGSV,2,2,05,26,16,078,36,,,,,,,,,,,,*45\r\n"
$GLGSV,1,1,03,74,49,061,37,75,49,322,37,85,27,156,43,,,,*5E\r\n"
$GAGSV,1,1,02,02,71,022,39,07,34,298,39,,,,,,,,*6D\r\n"
$GNVTG,,T,,M,0.01,N,0.02,K,D*3B\r\n"
$GNGST,172811.00,3.774,,,,0.226,0.310,0.311*6B\r\n"
$GNZDA,172811.00,02,02,2024,00,00*70\r\n"
$GNRMC,172812.00,A,4220.2335341,N,07105.2130548,W,0.01,,020224,,,D*4E\r\n"
$GNGGA,172812.00,4220.2335341,N,07105.2130548,W,5,10,1.1,6.238,M,-28.727,M,2.0,0061*64\r\
  \n"
$GPGSA,A,3,04,07,08,16,26,,,,,,,,2.7,1.1,2.5*38\r\n"
$GLGSA,A,3,74,75,85,,,,,,,,,,2.7,1.1,2.5*20\r\n"
$GAGSA,A,3,02,07,,,,,,,,,,,2.7,1.1,2.5*24\r\n"
$GBGSA,A,3,,,,,,,,,,,,,2.7,1.1,2.5*22\r\n"
$GPGSV,2,1,05,04,31,201,40,07,37,308,36,08,62,191,46,16,41,061,37*75\r\n"
$GPGSV,2,2,05,26,16,078,36,,,,,,,,,,,,*45\r\n"
$GLGSV,1,1,03,74,49,061,35,75,49,322,35,85,27,156,41,,,,*5C\r\n"
$GAGSV,1,1,02,02,71,022,39,07,34,298,39,,,,,,,,*6D\r\n"
$GNVTG,,T,,M,0.01,N,0.02,K,D*3B\r\n"
$GNGST,172812.00,3.876,,,,0.223,0.306,0.306*61\r\n"
$GNZDA,172812.00,02,02,2024,00,00*73\r\n"
$GNRMC,172813.00,A,4220.2335608,N,07105.2131091,W,0.01,,020224,,,D*47\r\n"
$GNGGA,172813.00,4220.2335608,N,07105.2131091,W,5,11,1.1,6.196,M,-28.727,M,1.0,0061*68\r\
  \n"
$GPGSA,A,3,04,07,08,16,26,,,,,,,,2.7,1.1,2.5*38\r\n"
$GLGSA,A,3,74,75,85,,,,,,,,,,2.7,1.1,2.5*20\r\n"
$GAGSA,A,3,02,07,08,,,,,,,,,,2.7,1.1,2.5*2C\r\n"
$GBGSA,A,3,,,,,,,,,,,,,2.7,1.1,2.5*22\r\n"
$GPGSV,2,1,05,04,31,201,40,07,37,308,37,08,62,191,46,16,41,061,37*74\r\n"
$GPGSV,2,2,05,26,16,078,36,,,,,,,,,,,,*45\r\n"
$GLGSV,1,1,03,74,49,061,35,75,49,322,36,85,27,156,41,,,,*5F\r\n"
$GAGSV,1,1,03,02,71,022,40,07,34,298,39,08,43,228,36,,,,*50\r\n"
$GNVTG,,T,,M,0.01,N,0.02,K,D*3B\r\n"
$GNGST,172813.00,4.010,,,,0.220,0.302,0.302*6C\r\n"
$GNZDA,172813.00,02,02,2024,00,00*72\r\n"
$GNRMC,172814.00,A,4220.2335872,N,07105.2131649,W,0.01,,020224,,,D*40\r\n"
$GNGGA,172814.00,4220.2335872,N,07105.2131649,W,5,11,1.1,6.119,M,-28.727,M,2.0,0061*6B\r\
  \n"
$GPGSA,A,3,04,07,08,16,26,,,,,,,,2.7,1.1,2.5*38\r\n"
$GLGSA,A,3,74,75,85,,,,,,,,,,2.7,1.1,2.5*20\r\n"
$GAGSA,A,3,02,07,08,,,,,,,,,,2.7,1.1,2.5*2C\r\n"
$GBGSA,A,3,,,,,,,,,,,,,2.7,1.1,2.5*22\r\n"
$GPGSV,2,1,05,04,31,201,40,07,37,308,37,08,62,191,46,16,41,061,36*75\r\n"
$GPGSV,2,2,05,26,16,078,36,,,,,,,,,,,,*45\r\n"
$GLGSV,1,1,03,74,49,061,35,75,49,322,36,85,27,156,42,,,,*5C\r\n"
$GAGSV,1,1,03,02,71,022,40,07,34,298,39,08,43,228,36,,,,*50\r\n"
$GNVTG,,T,,M,0.01,N,0.02,K,D*3B\r\n"
$GNGST,172814.00,4.039,,,,0.218,0.298,0.297*64\r\n"
$GNZDA,172814.00,02,02,2024,00,00*75\r\n"
$GNRMC,172815.00,A,4220.2336034,N,07105.2132178,W,0.01,,020224,,,D*4E\r\n"
$GNGGA,172815.00,4220.2336034,N,07105.2132178,W,5,11,1.1,6.084,M,-28.727,M,1.0,0061*63\r\
  \n"
$GPGSA,A,3,04,07,08,16,26,,,,,,,,2.7,1.1,2.5*38\r\n"
$GLGSA,A,3,74,75,85,,,,,,,,,,2.7,1.1,2.5*20\r\n"
$GAGSA,A,3,02,07,08,,,,,,,,,,2.7,1.1,2.5*2C\r\n"
$GBGSA,A,3,,,,,,,,,,,,,2.7,1.1,2.5*22\r\n"
$GPGSV,2,1,05,04,31,201,40,07,37,308,38,08,62,191,46,16,41,061,37*7B\r\n"
$GPGSV,2,2,05,26,16,078,36,,,,,,,,,,,,*45\r\n"
$GLGSV,1,1,03,74,49,061,35,75,49,322,36,85,27,156,41,,,,*5F\r\n"
$GAGSV,1,1,03,02,71,022,40,07,34,298,39,08,43,228,36,,,,*50\r\n"
$GNVTG,,T,,M,0.01,N,0.02,K,D*3B\r\n"
$GNGST,172815.00,4.056,,,,0.215,0.294,0.293*69\r\n"
$GNZDA,172815.00,02,02,2024,00,00*74\r\n"
$GNRMC,172816.00,A,4220.2336266,N,07105.2132771,W,0.01,,020224,,,D*47\r\n"
$GNGGA,172816.00,4220.2336266,N,07105.2132771,W,5,10,1.1,6.052,M,-28.727,M,1.0,0061*60\r\
  \n"
$GPGSA,A,3,04,07,08,16,26,,,,,,,,2.7,1.1,2.5*38\r\n"
$GLGSA,A,3,74,75,85,,,,,,,,,,2.7,1.1,2.5*20\r\n"
$GAGSA,A,3,02,07,,,,,,,,,,,2.7,1.1,2.5*24\r\n"
$GBGSA,A,3,,,,,,,,,,,,,2.7,1.1,2.5*22\r\n"
$GPGSV,2,1,05,04,31,201,38,07,37,308,38,08,62,191,46,16,41,061,37*74\r\n"
$GPGSV,2,2,05,26,16,078,35,,,,,,,,,,,,*46\r\n"
$GLGSV,1,1,03,74,49,062,35,75,49,322,37,85,27,156,41,,,,*5D\r\n"
$GAGSV,1,1,02,02,71,022,40,07,34,298,39,,,,,,,,*63\r\n"
$GNVTG,,T,,M,0.01,N,0.02,K,D*3B\r\n"
$GNGST,172816.00,4.192,,,,0.212,0.291,0.289*6A\r\n"
$GNZDA,172816.00,02,02,2024,00,00*77\r\n"
$GNRMC,172817.00,A,4220.2336548,N,07105.2133347,W,0.01,,020224,,,D*4D\r\n"
$GNGGA,172817.00,4220.2336548,N,07105.2133347,W,5,10,1.1,6.023,M,-28.727,M,2.0,0061*6F\r\
  \n"
$GPGSA,A,3,04,07,08,16,26,,,,,,,,2.7,1.1,2.5*38\r\n"
$GLGSA,A,3,74,75,85,,,,,,,,,,2.7,1.1,2.5*20\r\n"
$GAGSA,A,3,02,07,,,,,,,,,,,2.7,1.1,2.5*24\r\n"
$GBGSA,A,3,,,,,,,,,,,,,2.7,1.1,2.5*22\r\n"
$GPGSV,2,1,05,04,31,201,39,07,37,308,38,08,62,191,46,16,41,061,38*7A\r\n"
$GPGSV,2,2,05,26,16,078,36,,,,,,,,,,,,*45\r\n"
$GLGSV,1,1,03,74,49,062,37,75,49,322,38,85,27,156,42,,,,*53\r\n"
$GAGSV,1,1,02,02,71,022,40,07,34,298,40,,,,,,,,*6D\r\n"
$GNVTG,,T,,M,0.01,N,0.02,K,D*3B\r\n"
$GNGST,172817.00,4.164,,,,0.210,0.287,0.285*6B\r\n"
$GNZDA,172817.00,02,02,2024,00,00*76\r\n"
$GNRMC,172818.00,A,4220.2336760,N,07105.2133783,W,0.01,,020224,,,D*46\r\n"
$GNGGA,172818.00,4220.2336760,N,07105.2133783,W,5,10,1.1,6.043,M,-28.727,M,1.0,0061*61\r\
  \n"
$GPGSA,A,3,04,07,08,16,26,,,,,,,,2.7,1.1,2.5*38\r\n"
$GLGSA,A,3,74,75,85,,,,,,,,,,2.7,1.1,2.5*20\r\n"
$GAGSA,A,3,02,07,,,,,,,,,,,2.7,1.1,2.5*24\r\n"
$GBGSA,A,3,,,,,,,,,,,,,2.7,1.1,2.5*22\r\n"
$GPGSV,2,1,05,04,31,201,39,07,37,308,38,08,62,191,46,16,41,061,36*74\r\n"
$GPGSV,2,2,05,26,16,078,35,,,,,,,,,,,,*46\r\n"
$GLGSV,1,1,03,74,49,062,37,75,49,322,38,85,27,156,40,,,,*51\r\n"
$GAGSV,1,1,02,02,71,022,40,07,34,298,40,,,,,,,,*6D\r\n"
$GNVTG,,T,,M,0.01,N,0.02,K,D*3B\r\n"
$GNGST,172818.00,4.015,,,,0.207,0.284,0.281*62\r\n"
$GNZDA,172818.00,02,02,2024,00,00*79\r\n"
$GNRMC,172819.00,A,4220.2337027,N,07105.2134214,W,0.01,,020224,,,D*4E\r\n"
$GNGGA,172819.00,4220.2337027,N,07105.2134214,W,5,10,1.1,6.046,M,-28.727,M,2.0,0061*6F\r\
  \n"
$GPGSA,A,3,04,07,08,16,26,,,,,,,,2.7,1.1,2.5*38\r\n"
$GLGSA,A,3,74,75,85,,,,,,,,,,2.7,1.1,2.5*20\r\n"
$GAGSA,A,3,02,07,,,,,,,,,,,2.7,1.1,2.5*24\r\n"
$GBGSA,A,3,,,,,,,,,,,,,2.7,1.1,2.5*22\r\n"
$GPGSV,2,1,05,04,31,201,40,07,37,308,39,08,62,191,46,16,41,061,37*7A\r\n"
$GPGSV,2,2,05,26,16,078,36,,,,,,,,,,,,*45\r\n"
$GLGSV,1,1,03,74,49,062,36,75,49,322,38,85,27,156,39,,,,*5E\r\n"
$GAGSV,1,1,02,02,71,022,40,07,34,298,40,,,,,,,,*6D\r\n"
$GNVTG,,T,,M,0.01,N,0.02,K,D*3B\r\n"
$GNGST,172819.00,3.983,,,,0.205,0.281,0.277*6C\r\n"
$GNZDA,172819.00,02,02,2024,00,00*78\r\n"
$GNRMC,172820.00,A,4220.2337206,N,07105.2134630,W,0.01,,020224,,,D*47\r\n"
$GNGGA,172820.00,4220.2337206,N,07105.2134630,W,5,10,1.1,6.022,M,-28.727,M,1.0,0061*67\r\
  \n"
$GPGSA,A,3,04,07,08,16,26,,,,,,,,2.7,1.1,2.5*38\r\n"
$GLGSA,A,3,74,75,85,,,,,,,,,,2.7,1.1,2.5*20\r\n"
$GAGSA,A,3,02,07,,,,,,,,,,,2.7,1.1,2.5*24\r\n"
$GBGSA,A,3,,,,,,,,,,,,,2.7,1.1,2.5*22\r\n"
$GPGSV,2,1,05,04,31,201,38,07,37,308,38,08,62,191,44,16,41,061,36*77\r\n"
$GPGSV,2,2,05,26,16,078,35,,,,,,,,,,,,*46\r\n"
$GLGSV,1,1,03,74,49,062,36,75,49,322,38,85,27,156,39,,,,*5E\r\n"
$GAGSV,1,1,02,02,71,022,40,07,34,298,39,,,,,,,,*63\r\n"
$GNVTG,,T,,M,0.01,N,0.02,K,D*3B\r\n"
$GNGST,172820.00,3.918,,,,0.203,0.278,0.273*60\r\n"
$GNZDA,172820.00,02,02,2024,00,00*72\r\n"
$GNRMC,172821.00,A,4220.2337320,N,07105.2134769,W,0.01,,020224,,,D*4E\r\n"
$GNGGA,172821.00,4220.2337320,N,07105.2134769,W,5,09,1.2,6.023,M,-28.727,M,1.0,0061*64\r\
  \n"
$GPGSA,A,3,04,07,08,16,,,,,,,,,3.3,1.2,3.1*3F\r\n"
$GLGSA,A,3,74,75,85,,,,,,,,,,3.3,1.2,3.1*23\r\n"
$GAGSA,A,3,02,07,,,,,,,,,,,3.3,1.2,3.1*27\r\n"
$GBGSA,A,3,,,,,,,,,,,,,3.3,1.2,3.1*21\r\n"
$GPGSV,1,1,04,04,31,201,37,07,37,308,38,08,62,191,44,16,41,061,35*79\r\n"
$GLGSV,1,1,03,74,49,062,35,75,49,322,38,85,27,156,39,,,,*5D\r\n"
$GAGSV,1,1,02,02,71,022,39,07,34,298,38,,,,,,,,*6C\r\n"
$GNVTG,,T,,M,0.01,N,0.02,K,D*3B\r\n"
$GNGST,172821.00,3.784,,,,0.200,0.275,0.270*67\r\n"
$GNZDA,172821.00,02,02,2024,00,00*73\r\n"
$GNRMC,172822.00,A,4220.2337462,N,07105.2134949,W,0.01,,020224,,,D*40\r\n"
$GNGGA,172822.00,4220.2337462,N,07105.2134949,W,5,08,2.4,5.986,M,-28.727,M,2.0,0061*68\r\
  \n"
$GPGSA,A,3,04,07,08,,,,,,,,,,3.9,2.4,3.1*37\r\n"
$GLGSA,A,3,74,75,85,,,,,,,,,,3.9,2.4,3.1*2C\r\n"
$GAGSA,A,3,02,07,,,,,,,,,,,3.9,2.4,3.1*28\r\n"
$GBGSA,A,3,,,,,,,,,,,,,3.9,2.4,3.1*2E\r\n"
$GPGSV,1,1,03,04,31,201,37,07,37,308,38,08,62,191,44,,,,*4D\r\n"
$GLGSV,1,1,03,74,49,062,35,75,49,322,38,85,27,156,39,,,,*5D\r\n"
$GAGSV,1,1,02,02,71,022,39,07,34,298,39,,,,,,,,*6D\r\n"
$GNVTG,,T,,M,0.01,N,0.02,K,D*3B\r\n"
$GNGST,172822.00,3.572,,,,0.198,0.274,0.267*6A\r\n"
$GNZDA,172822.00,02,02,2024,00,00*70\r\n"
$GNRMC,172823.00,A,4220.2337539,N,07105.2135109,W,0.01,,020224,,,D*43\r\n"
$GNGGA,172823.00,4220.2337539,N,07105.2135109,W,5,07,2.4,5.971,M,-28.727,M,1.0,0061*6F\r\
  \n"
$GPGSA,A,3,04,07,08,,,,,,,,,,3.9,2.4,3.1*37\r\n"
$GLGSA,A,3,75,85,,,,,,,,,,,3.9,2.4,3.1*2F\r\n"
$GAGSA,A,3,02,07,,,,,,,,,,,3.9,2.4,3.1*28\r\n"
$GBGSA,A,3,,,,,,,,,,,,,3.9,2.4,3.1*2E\r\n"
$GPGSV,1,1,03,04,31,201,37,07,37,308,38,08,62,191,44,,,,*4D\r\n"
$GLGSV,1,1,02,75,49,322,38,85,27,156,39,,,,,,,,*60\r\n"
$GAGSV,1,1,02,02,71,022,39,07,34,298,39,,,,,,,,*6D\r\n"
$GNVTG,,T,,M,0.01,N,0.02,K,D*3B\r\n"
$GNGST,172823.00,3.268,,,,0.196,0.273,0.264*6D\r\n"
$GNZDA,172823.00,02,02,2024,00,00*71\r\n"
$GNRMC,172824.00,A,4220.2337669,N,07105.2135334,W,0.01,,020224,,,D*4E\r\n"
$GNGGA,172824.00,4220.2337669,N,07105.2135334,W,5,07,2.4,5.944,M,-28.727,M,2.0,0061*67\r\
  \n"
$GPGSA,A,3,04,07,08,,,,,,,,,,3.9,2.4,3.1*37\r\n"
$GLGSA,A,3,75,85,,,,,,,,,,,3.9,2.4,3.1*2F\r\n"
$GAGSA,A,3,02,07,,,,,,,,,,,3.9,2.4,3.1*28\r\n"
$GBGSA,A,3,,,,,,,,,,,,,3.9,2.4,3.1*2E\r\n"
$GPGSV,1,1,03,04,31,201,37,07,37,308,38,08,62,191,44,,,,*4D\r\n"
$GLGSV,1,1,02,75,49,322,38,85,27,156,38,,,,,,,,*61\r\n"
$GAGSV,1,1,02,02,71,022,39,07,34,298,39,,,,,,,,*6D\r\n"
$GNVTG,,T,,M,0.01,N,0.02,K,D*3B\r\n"
$GNGST,172824.00,2.855,,,,0.194,0.271,0.261*6A\r\n"
$GNZDA,172824.00,02,02,2024,00,00*76\r\n"
$GNRMC,172825.00,A,4220.2337671,N,07105.2135361,W,0.01,,020224,,,D*46\r\n"
$GNGGA,172825.00,4220.2337671,N,07105.2135361,W,5,07,2.4,5.936,M,-28.727,M,1.0,0061*69\r\
  \n"
$GPGSA,A,3,04,07,08,,,,,,,,,,3.9,2.4,3.1*37\r\n"
$GLGSA,A,3,75,85,,,,,,,,,,,3.9,2.4,3.1*2F\r\n"
$GAGSA,A,3,02,07,,,,,,,,,,,3.9,2.4,3.1*28\r\n"
$GBGSA,A,3,,,,,,,,,,,,,3.9,2.4,3.1*2E\r\n"
$GPGSV,1,1,03,04,31,201,36,07,37,308,38,08,62,191,44,,,,*4C\r\n"
$GLGSV,1,1,02,75,49,322,38,85,27,156,37,,,,,,,,*6E\r\n"
$GAGSV,1,1,02,02,71,022,39,07,34,298,39,,,,,,,,*6D\r\n"
$GNVTG,,T,,M,0.01,N,0.02,K,D*3B\r\n"
$GNGST,172825.00,2.414,,,,0.192,0.270,0.258*6F\r\n"
$GNZDA,172825.00,02,02,2024,00,00*77\r\n"
$GNRMC,172826.00,A,4220.2337734,N,07105.2135459,W,0.01,,020224,,,D*49\r\n"
$GNGGA,172826.00,4220.2337734,N,07105.2135459,W,5,07,2.4,5.889,M,-28.727,M,1.0,0061*63\r\
  \n"
$GPGSA,A,3,04,07,08,,,,,,,,,,3.9,2.4,3.1*37\r\n"
$GLGSA,A,3,75,85,,,,,,,,,,,3.9,2.4,3.1*2F\r\n"
$GAGSA,A,3,02,07,,,,,,,,,,,3.9,2.4,3.1*28\r\n"
$GBGSA,A,3,,,,,,,,,,,,,3.9,2.4,3.1*2E\r\n"
$GPGSV,1,1,03,04,31,201,37,07,37,308,38,08,62,191,44,,,,*4D\r\n"
$GLGSV,1,1,02,75,49,322,37,85,27,156,37,,,,,,,,*61\r\n"
$GAGSV,1,1,02,02,71,022,40,07,34,298,39,,,,,,,,*63\r\n"
$GNVTG,,T,,M,0.01,N,0.02,K,D*3B\r\n"
$GNGST,172826.00,1.778,,,,0.190,0.269,0.255*61\r\n"
$GNZDA,172826.00,02,02,2024,00,00*74\r\n"
$GNRMC,172827.00,A,4220.2337811,N,07105.2135508,W,0.01,,020224,,,D*45\r\n"
$GNGGA,172827.00,4220.2337811,N,07105.2135508,W,5,07,2.4,5.836,M,-28.727,M,2.0,0061*68\r\
  \n"
$GPGSA,A,3,04,07,08,,,,,,,,,,3.9,2.4,3.1*37\r\n"
$GLGSA,A,3,75,85,,,,,,,,,,,3.9,2.4,3.1*2F\r\n"
$GAGSA,A,3,02,07,,,,,,,,,,,3.9,2.4,3.1*28\r\n"
$GBGSA,A,3,,,,,,,,,,,,,3.9,2.4,3.1*2E\r\n"
$GPGSV,1,1,03,04,31,201,37,07,37,308,38,08,62,191,44,,,,*4D\r\n"
$GLGSV,1,1,02,75,49,322,37,85,27,156,37,,,,,,,,*61\r\n"
$GAGSV,1,1,02,02,71,022,40,07,34,298,39,,,,,,,,*63\r\n"
$GNVTG,,T,,M,0.01,N,0.02,K,D*3B\r\n"
$GNGST,172827.00,1.141,,,,0.188,0.268,0.252*63\r\n"
$GNZDA,172827.00,02,02,2024,00,00*75\r\n"
$GNRMC,172828.00,A,4220.2337737,N,07105.2135512,W,0.01,,020224,,,D*4A\r\n"
$GNGGA,172828.00,4220.2337737,N,07105.2135512,W,5,07,2.4,5.831,M,-28.727,M,1.0,0061*63\r\
  \n"
$GPGSA,A,3,04,07,08,,,,,,,,,,3.9,2.4,3.1*37\r\n"
$GLGSA,A,3,75,85,,,,,,,,,,,3.9,2.4,3.1*2F\r\n"
$GAGSA,A,3,02,07,,,,,,,,,,,3.9,2.4,3.1*28\r\n"
$GBGSA,A,3,,,,,,,,,,,,,3.9,2.4,3.1*2E\r\n"
$GPGSV,1,1,03,04,31,201,37,07,37,308,38,08,62,191,44,,,,*4D\r\n"
$GLGSV,1,1,02,75,49,322,37,85,27,156,37,,,,,,,,*61\r\n"
$GAGSV,1,1,02,02,71,022,40,07,34,298,39,,,,,,,,*63\r\n"
$GNVTG,,T,,M,0.01,N,0.02,K,D*3B\r\n"
$GNGST,172828.00,0.756,,,,0.187,0.267,0.250*6F\r\n"
$GNZDA,172828.00,02,02,2024,00,00*7A\r\n"
$GNRMC,172829.00,A,4220.2337690,N,07105.2135557,W,0.01,,020224,,,D*46\r\n"
$GNGGA,172829.00,4220.2337690,N,07105.2135557,W,5,07,2.4,5.801,M,-28.727,M,2.0,0061*6F\r\
  \n"
$GPGSA,A,3,04,07,08,,,,,,,,,,3.9,2.4,3.1*37\r\n"
$GLGSA,A,3,75,85,,,,,,,,,,,3.9,2.4,3.1*2F\r\n"
$GAGSA,A,3,02,07,,,,,,,,,,,3.9,2.4,3.1*28\r\n"
$GBGSA,A,3,,,,,,,,,,,,,3.9,2.4,3.1*2E\r\n"
$GPGSV,1,1,03,04,31,201,36,07,37,308,38,08,62,191,44,,,,*4C\r\n"
$GLGSV,1,1,02,75,49,322,36,85,27,156,37,,,,,,,,*60\r\n"
$GAGSV,1,1,02,02,71,022,40,07,34,298,39,,,,,,,,*63\r\n"
$GNVTG,,T,,M,0.01,N,0.02,K,D*3B\r\n"
$GNGST,172829.00,1.023,,,,0.185,0.266,0.247*6F\r\n"
$GNZDA,172829.00,02,02,2024,00,00*7B\r\n"
$GNRMC,172830.00,A,4220.2337551,N,07105.2135417,W,0.01,,020224,,,D*45\r\n"
$GNGGA,172830.00,4220.2337551,N,07105.2135417,W,5,07,2.4,5.805,M,-28.727,M,1.0,0061*6B\r\
  \n"
$GPGSA,A,3,04,07,08,,,,,,,,,,3.9,2.4,3.1*37\r\n"
$GLGSA,A,3,75,85,,,,,,,,,,,3.9,2.4,3.1*2F\r\n"
$GAGSA,A,3,02,07,,,,,,,,,,,3.9,2.4,3.1*28\r\n"
$GBGSA,A,3,,,,,,,,,,,,,3.9,2.4,3.1*2E\r\n"
$GPGSV,1,1,03,04,31,201,36,07,37,308,39,08,62,191,43,,,,*4A\r\n"
$GLGSV,1,1,02,75,49,322,36,85,27,156,37,,,,,,,,*60\r\n"
$GAGSV,1,1,02,02,71,022,40,07,34,298,39,,,,,,,,*63\r\n"
$GNVTG,,T,,M,0.01,N,0.02,K,D*3B\r\n"
$GNGST,172830.00,1.696,,,,0.183,0.265,0.244*69\r\n"
$GNZDA,172830.00,02,02,2024,00,00*73\r\n"
$GNRMC,172831.00,A,4220.2337428,N,07105.2134778,W,0.01,,020224,,,D*40\r\n"
$GNGGA,172831.00,4220.2337428,N,07105.2134778,W,4,07,2.4,5.755,M,-28.727,M,1.0,0061*65\r\
  \n"
$GPGSA,A,3,04,07,08,,,,,,,,,,3.9,2.4,3.1*37\r\n"
$GLGSA,A,3,75,85,,,,,,,,,,,3.9,2.4,3.1*2F\r\n"
$GAGSA,A,3,02,07,,,,,,,,,,,3.9,2.4,3.1*28\r\n"
$GBGSA,A,3,,,,,,,,,,,,,3.9,2.4,3.1*2E\r\n"
$GPGSV,1,1,03,04,31,201,36,07,37,308,39,08,62,191,43,,,,*4A\r\n"
$GLGSV,1,1,02,75,49,322,35,85,27,156,38,,,,,,,,*6C\r\n"
$GAGSV,1,1,02,02,71,022,39,07,34,298,39,,,,,,,,*6D\r\n"
$GNVTG,,T,,M,0.01,N,0.02,K,D*3B\r\n"
$GNGST,172831.00,2.241,,,,0.010,0.010,0.010*6D\r\n"
$GNZDA,172831.00,02,02,2024,00,00*72\r\n"
$GNRMC,172832.00,A,4220.2337426,N,07105.2134782,W,0.01,,020224,,,D*48\r\n"
$GNGGA,172832.00,4220.2337426,N,07105.2134782,W,4,07,2.4,5.755,M,-28.727,M,2.0,0061*6E\r\
  \n"
$GPGSA,A,3,04,07,08,,,,,,,,,,3.9,2.4,3.1*37\r\n"
$GLGSA,A,3,75,85,,,,,,,,,,,3.9,2.4,3.1*2F\r\n"
