$GNRMC,165016.00,A,4220.2947808,N,07105.1903342,W,0.01,340.71,020224,,,D*55\r\n"
$GNGGA,165016.00,4220.2947808,N,07105.1903342,W,5,20,0.8,24.733,M,-28.725,M,2.0,0061*57\r\
  \n"
$GPGSA,A,3,04,07,08,09,16,26,31,,,,,,2.1,0.8,2.0*38\r\n"
$GLGSA,A,3,65,72,73,74,75,83,84,,,,,,2.1,0.8,2.0*23\r\n"
$GAGSA,A,3,02,03,07,08,30,,,,,,,,2.1,0.8,2.0*27\r\n"
$GBGSA,A,3,,,,,,,,,,,,,2.1,0.8,2.0*29\r\n"
$GPGSV,2,1,07,04,48,211,47,07,23,304,44,08,43,191,48,09,47,277,48*7B\r\n"
$GPGSV,2,2,07,16,56,048,46,26,29,068,43,31,16,117,42,,,,*46\r\n"
$GLGSV,2,1,07,65,32,301,43,72,31,232,44,73,25,075,44,74,58,029,41*63\r\n"
$GLGSV,2,2,07,75,37,300,46,83,23,035,35,84,38,110,36,,,,*5D\r\n"
$GAGSV,2,1,05,02,76,333,46,03,27,182,42,07,27,311,42,08,54,245,46*68\r\n"
$GAGSV,2,2,05,30,31,261,44,,,,,,,,,,,,*59\r\n"
$GNVTG,340.71,T,,M,0.01,N,0.01,K,D*27\r\n"
$GNGST,165016.00,0.989,,,,0.387,0.307,1.074*60\r\n"
$GNZDA,165016.00,02,02,2024,00,00*79\r\n"
$GNRMC,165017.00,A,4220.2947818,N,07105.1903424,W,0.01,340.71,020224,,,D*52\r\n"
$GNGGA,165017.00,4220.2947818,N,07105.1903424,W,5,20,0.8,24.821,M,-28.725,M,1.0,0061*5F\r\
  \n"
$GPGSA,A,3,04,07,08,09,16,26,31,,,,,,2.1,0.8,2.0*38\r\n"
$GLGSA,A,3,65,72,73,74,75,83,84,,,,,,2.1,0.8,2.0*23\r\n"
$GAGSA,A,3,02,03,07,08,30,,,,,,,,2.1,0.8,2.0*27\r\n"
$GBGSA,A,3,,,,,,,,,,,,,2.1,0.8,2.0*29\r\n"
$GPGSV,2,1,07,04,48,211,47,07,23,304,44,08,43,191,48,09,47,277,49*7A\r\n"
$GPGSV,2,2,07,16,56,048,46,26,29,068,43,31,16,117,42,,,,*46\r\n"
$GLGSV,2,1,07,65,32,301,43,72,31,232,43,73,25,075,44,74,58,029,40*65\r\n"
$GLGSV,2,2,07,75,37,300,46,83,23,035,35,84,38,110,36,,,,*5D\r\n"
$GAGSV,2,1,05,02,76,333,46,03,27,182,42,07,27,311,42,08,54,245,46*68\r\n"
$GAGSV,2,2,05,30,31,261,44,,,,,,,,,,,,*59\r\n"
$GNVTG,340.71,T,,M,0.01,N,0.01,K,D*27\r\n"
$GNGST,165017.00,1.089,,,,0.378,0.300,1.051*69\r\n"
$GNZDA,165017.00,02,02,2024,00,00*78\r\n"
$GNRMC,165018.00,A,4220.2947835,N,07105.1903486,W,0.01,340.71,020224,,,D*5A\r\n"
$GNGGA,165018.00,4220.2947835,N,07105.1903486,W,5,20,0.8,24.876,M,-28.725,M,1.0,0061*55\r\
  \n"
$GPGSA,A,3,04,07,08,09,16,26,31,,,,,,2.1,0.8,2.0*38\r\n"
$GLGSA,A,3,65,72,73,74,75,83,84,,,,,,2.1,0.8,2.0*23\r\n"
$GAGSA,A,3,02,03,07,08,30,,,,,,,,2.1,0.8,2.0*27\r\n"
$GBGSA,A,3,,,,,,,,,,,,,2.1,0.8,2.0*29\r\n"
$GPGSV,2,1,07,04,48,211,46,07,23,304,44,08,43,191,48,09,47,277,49*7B\r\n"
$GPGSV,2,2,07,16,56,048,46,26,29,068,43,31,16,117,42,,,,*46\r\n"
$GLGSV,2,1,07,65,32,301,43,72,31,232,43,73,25,075,45,74,58,029,40*64\r\n"
$GLGSV,2,2,07,75,37,300,46,83,23,035,35,84,38,110,36,,,,*5D\r\n"
$GAGSV,2,1,05,02,76,333,46,03,27,182,42,07,27,311,42,08,54,245,46*68\r\n"
$GAGSV,2,2,05,30,31,261,44,,,,,,,,,,,,*59\r\n"
$GNVTG,340.71,T,,M,0.01,N,0.01,K,D*27\r\n"
$GNGST,165018.00,1.224,,,,0.370,0.294,1.027*66\r\n"
$GNZDA,165018.00,02,02,2024,00,00*77\r\n"
$GNRMC,165019.00,A,4220.2947871,N,07105.1903578,W,0.01,340.71,020224,,,D*5B\r\n"
$GNGGA,165019.00,4220.2947871,N,07105.1903578,W,5,19,0.8,24.960,M,-28.725,M,1.0,0061*58\r\
  \n"
$GPGSA,A,3,04,07,08,09,16,26,31,,,,,,2.1,0.8,2.0*38\r\n"
$GLGSA,A,3,65,72,73,74,75,84,,,,,,,2.1,0.8,2.0*28\r\n"
$GAGSA,A,3,02,03,07,08,30,,,,,,,,2.1,0.8,2.0*27\r\n"
$GBGSA,A,3,,,,,,,,,,,,,2.1,0.8,2.0*29\r\n"
$GPGSV,2,1,07,04,48,211,46,07,23,304,44,08,43,191,48,09,47,277,48*7A\r\n"
$GPGSV,2,2,07,16,56,048,46,26,29,068,43,31,16,117,42,,,,*46\r\n"
$GLGSV,2,1,06,65,32,301,43,72,31,232,44,73,25,075,45,74,58,029,40*62\r\n"
$GLGSV,2,2,06,75,37,300,46,84,38,110,36,,,,,,,,*66\r\n"
$GAGSV,2,1,05,02,76,333,46,03,27,182,42,07,27,311,42,08,54,245,46*68\r\n"
$GAGSV,2,2,05,30,31,261,43,,,,,,,,,,,,*5E\r\n"
$GNVTG,340.71,T,,M,0.01,N,0.01,K,D*27\r\n"
$GNGST,165019.00,1.315,,,,0.362,0.288,1.004*6B\r\n"
$GNZDA,165019.00,02,02,2024,00,00*76\r\n"
$GNRMC,165020.00,A,4220.2947844,N,07105.1903647,W,0.01,340.71,020224,,,D*58\r\n"
$GNGGA,165020.00,4220.2947844,N,07105.1903647,W,5,19,0.8,24.908,M,-28.725,M,1.0,0061*55\r\
  \n"
$GPGSA,A,3,04,07,08,09,16,26,31,,,,,,2.1,0.8,2.0*38\r\n"
$GLGSA,A,3,65,72,73,74,75,84,,,,,,,2.1,0.8,2.0*28\r\n"
$GAGSA,A,3,02,03,07,08,30,,,,,,,,2.1,0.8,2.0*27\r\n"
$GBGSA,A,3,,,,,,,,,,,,,2.1,0.8,2.0*29\r\n"
$GPGSV,2,1,07,04,48,211,47,07,23,304,44,08,43,191,49,09,47,277,48*7A\r\n"
$GPGSV,2,2,07,16,56,048,46,26,29,068,43,31,16,117,41,,,,*45\r\n"
$GLGSV,2,1,06,65,32,301,43,72,31,232,44,73,25,075,45,74,58,029,40*62\r\n"
$GLGSV,2,2,06,75,37,300,46,84,38,110,36,,,,,,,,*66\r\n"
$GAGSV,2,1,05,02,76,334,46,03,27,182,42,07,27,311,42,08,54,245,46*6F\r\n"
$GAGSV,2,2,05,30,31,261,43,,,,,,,,,,,,*5E\r\n"
$GNVTG,340.71,T,,M,0.01,N,0.01,K,D*27\r\n"
$GNGST,165020.00,1.575,,,,0.355,0.282,0.980*6B\r\n"
$GNZDA,165020.00,02,02,2024,00,00*7C\r\n"
$GNRMC,165021.00,A,4220.2947810,N,07105.1903710,W,0.01,340.71,020224,,,D*5B\r\n"
$GNGGA,165021.00,4220.2947810,N,07105.1903710,W,5,19,0.8,24.800,M,-28.725,M,2.0,0061*5C\r\
  \n"
$GPGSA,A,3,04,07,08,09,16,26,31,,,,,,2.1,0.8,2.0*38\r\n"
$GLGSA,A,3,65,72,73,74,75,84,,,,,,,2.1,0.8,2.0*28\r\n"
$GAGSA,A,3,02,03,07,08,30,,,,,,,,2.1,0.8,2.0*27\r\n"
$GBGSA,A,3,,,,,,,,,,,,,2.1,0.8,2.0*29\r\n"
$GPGSV,2,1,07,04,48,211,46,07,23,304,44,08,43,191,49,09,47,277,48*7B\r\n"
$GPGSV,2,2,07,16,56,048,46,26,29,068,43,31,16,117,41,,,,*45\r\n"
$GLGSV,2,1,06,65,32,301,43,72,31,232,44,73,25,075,45,74,58,029,40*62\r\n"
$GLGSV,2,2,06,75,37,300,45,84,38,110,36,,,,,,,,*65\r\n"
$GAGSV,2,1,05,02,76,334,46,03,27,182,41,07,27,311,42,08,54,245,46*6C\r\n"
$GAGSV,2,2,05,30,31,261,43,,,,,,,,,,,,*5E\r\n"
$GNVTG,340.71,T,,M,0.01,N,0.01,K,D*27\r\n"
$GNGST,165021.00,1.555,,,,0.348,0.277,0.957*64\r\n"
$GNZDA,165021.00,02,02,2024,00,00*7D\r\n"
$GNRMC,165022.00,A,4220.2947799,N,07105.1903755,W,0.01,340.71,020224,,,D*57\r\n"
$GNGGA,165022.00,4220.2947799,N,07105.1903755,W,5,20,0.8,24.661,M,-28.725,M,1.0,0061*50\r\
  \n"
$GPGSA,A,3,04,07,08,09,16,26,31,,,,,,2.1,0.8,1.9*32\r\n"
$GLGSA,A,3,65,72,73,74,75,83,84,,,,,,2.1,0.8,1.9*29\r\n"
$GAGSA,A,3,02,03,07,08,30,,,,,,,,2.1,0.8,1.9*2D\r\n"
$GBGSA,A,3,,,,,,,,,,,,,2.1,0.8,1.9*23\r\n"
$GPGSV,2,1,07,04,48,211,46,07,23,304,44,08,43,191,48,09,47,277,48*7A\r\n"
$GPGSV,2,2,07,16,56,048,46,26,29,068,43,31,16,117,42,,,,*46\r\n"
$GLGSV,2,1,07,65,32,301,43,72,31,232,44,73,25,075,45,74,58,029,40*63\r\n"
$GLGSV,2,2,07,75,37,300,46,83,23,035,35,84,38,109,36,,,,*55\r\n"
$GAGSV,2,1,05,02,76,334,46,03,27,182,41,07,27,311,42,08,54,245,46*6C\r\n"
$GAGSV,2,2,05,30,31,261,43,,,,,,,,,,,,*5E\r\n"
$GNVTG,340.71,T,,M,0.01,N,0.01,K,D*27\r\n"
$GNGST,165022.00,1.789,,,,0.340,0.271,0.931*6A\r\n"
$GNZDA,165022.00,02,02,2024,00,00*7E\r\n"
$GNRMC,165023.00,A,4220.2947721,N,07105.1903784,W,0.01,340.71,020224,,,D*59\r\n"
$GNGGA,165023.00,4220.2947721,N,07105.1903784,W,5,20,0.8,24.513,M,-28.725,M,1.0,0061*58\r\
  \n"
$GPGSA,A,3,04,07,08,09,16,26,31,,,,,,2.1,0.8,1.9*32\r\n"
$GLGSA,A,3,65,72,73,74,75,83,84,,,,,,2.1,0.8,1.9*29\r\n"
$GAGSA,A,3,02,03,07,08,30,,,,,,,,2.1,0.8,1.9*2D\r\n"
$GBGSA,A,3,,,,,,,,,,,,,2.1,0.8,1.9*23\r\n"
$GPGSV,2,1,07,04,48,211,46,07,23,304,44,08,43,191,48,09,47,277,48*7A\r\n"
$GPGSV,2,2,07,16,56,049,46,26,29,068,43,31,16,117,42,,,,*47\r\n"
$GLGSV,2,1,07,65,32,301,43,72,31,232,44,73,25,075,45,74,58,029,40*63\r\n"
$GLGSV,2,2,07,75,37,300,46,83,23,035,35,84,38,109,36,,,,*55\r\n"
$GAGSV,2,1,05,02,76,334,46,03,27,182,41,07,27,311,42,08,54,244,46*6D\r\n"
$GAGSV,2,2,05,30,31,261,43,,,,,,,,,,,,*5E\r\n"
$GNVTG,340.71,T,,M,0.01,N,0.01,K,D*27\r\n"
$GNGST,165023.00,1.823,,,,0.334,0.266,0.906*65\r\n"
$GNZDA,165023.00,02,02,2024,00,00*7F\r\n"
$GNRMC,165024.00,A,4220.2947535,N,07105.1903835,W,0.01,340.71,020224,,,D*5C\r\n"
$GNGGA,165024.00,4220.2947535,N,07105.1903835,W,5,20,0.8,24.176,M,-28.725,M,2.0,0061*59\r\
  \n"
$GPGSA,A,3,04,07,08,09,16,26,31,,,,,,2.1,0.8,1.9*32\r\n"
$GLGSA,A,3,65,72,73,74,75,83,84,,,,,,2.1,0.8,1.9*29\r\n"
$GAGSA,A,3,02,03,07,08,30,,,,,,,,2.1,0.8,1.9*2D\r\n"
$GBGSA,A,3,,,,,,,,,,,,,2.1,0.8,1.9*23\r\n"
$GPGSV,2,1,07,04,48,211,47,07,23,304,44,08,43,191,48,09,47,277,48*7B\r\n"
$GPGSV,2,2,07,16,56,049,46,26,29,068,43,31,16,117,41,,,,*44\r\n"
$GLGSV,2,1,07,65,32,301,43,72,31,232,44,73,25,075,45,74,58,029,41*62\r\n"
$GLGSV,2,2,07,75,37,300,46,83,23,035,35,84,38,109,36,,,,*55\r\n"
$GAGSV,2,1,05,02,76,334,46,03,27,182,42,07,27,311,42,08,54,244,46*6E\r\n"
$GAGSV,2,2,05,30,31,261,43,,,,,,,,,,,,*5E\r\n"
$GNVTG,340.71,T,,M,0.01,N,0.01,K,D*27\r\n"
$GNGST,165024.00,1.850,,,,0.327,0.262,0.882*6D\r\n"
$GNZDA,165024.00,02,02,2024,00,00*78\r\n"
$GNRMC,165025.00,A,4220.2947481,N,07105.1903890,W,0.01,340.71,020224,,,D*5C\r\n"
$GNGGA,165025.00,4220.2947481,N,07105.1903890,W,5,20,0.8,24.053,M,-28.725,M,1.0,0061*5C\r\
  \n"
$GPGSA,A,3,04,07,08,09,16,26,31,,,,,,2.1,0.8,1.9*32\r\n"
$GLGSA,A,3,65,72,73,74,75,83,84,,,,,,2.1,0.8,1.9*29\r\n"
$GAGSA,A,3,02,03,07,08,30,,,,,,,,2.1,0.8,1.9*2D\r\n"
$GBGSA,A,3,,,,,,,,,,,,,2.1,0.8,1.9*23\r\n"
$GPGSV,2,1,07,04,48,211,47,07,23,304,44,08,43,191,48,09,47,277,48*7B\r\n"
$GPGSV,2,2,07,16,56,049,46,26,29,068,43,31,16,117,41,,,,*44\r\n"
$GLGSV,2,1,07,65,32,301,43,72,31,232,44,73,25,075,45,74,58,029,41*62\r\n"
$GLGSV,2,2,07,75,37,300,46,83,23,035,35,84,38,109,36,,,,*55\r\n"
$GAGSV,2,1,05,02,76,334,46,03,27,182,42,07,27,311,42,08,54,244,46*6E\r\n"
$GAGSV,2,2,05,30,31,261,44,,,,,,,,,,,,*59\r\n"
$GNVTG,340.71,T,,M,0.01,N,0.01,K,D*27\r\n"
$GNGST,165025.00,1.851,,,,0.321,0.257,0.858*6A\r\n"
$GNZDA,165025.00,02,02,2024,00,00*79\r\n"
$GNRMC,165026.00,A,4220.2947454,N,07105.1903946,W,0.01,340.71,020224,,,D*5D\r\n"
$GNGGA,165026.00,4220.2947454,N,07105.1903946,W,5,20,0.8,23.922,M,-28.725,M,1.0,0061*55\r\
  \n"
$GPGSA,A,3,04,07,08,09,16,26,31,,,,,,2.1,0.8,1.9*32\r\n"
$GLGSA,A,3,65,72,73,74,75,83,84,,,,,,2.1,0.8,1.9*29\r\n"
$GAGSA,A,3,02,03,07,08,30,,,,,,,,2.1,0.8,1.9*2D\r\n"
$GBGSA,A,3,,,,,,,,,,,,,2.1,0.8,1.9*23\r\n"
$GPGSV,2,1,07,04,48,211,47,07,23,304,44,08,43,191,48,09,47,277,48*7B\r\n"
$GPGSV,2,2,07,16,56,049,46,26,29,068,43,31,16,117,41,,,,*44\r\n"
$GLGSV,2,1,07,65,32,301,43,72,31,232,44,73,25,075,45,74,58,029,41*62\r\n"
$GLGSV,2,2,07,75,37,300,46,83,23,035,35,84,38,109,36,,,,*55\r\n"
$GAGSV,2,1,05,02,76,334,46,03,27,182,43,07,27,311,42,08,54,244,46*6F\r\n"
$GAGSV,2,2,05,30,31,261,43,,,,,,,,,,,,*5E\r\n"
$GNVTG,340.71,T,,M,0.01,N,0.01,K,D*27\r\n"
$GNGST,165026.00,1.857,,,,0.315,0.253,0.834*66\r\n"
$GNZDA,165026.00,02,02,2024,00,00*7A\r\n"
$GNRMC,165027.00,A,4220.2947440,N,07105.1903912,W,0.01,340.71,020224,,,D*58\r\n"
$GNGGA,165027.00,4220.2947440,N,07105.1903912,W,5,20,0.8,23.896,M,-28.725,M,1.0,0061*5E\r\
  \n"
$GPGSA,A,3,04,07,08,09,16,26,31,,,,,,2.1,0.8,2.0*38\r\n"
$GLGSA,A,3,65,72,73,74,75,83,84,,,,,,2.1,0.8,2.0*23\r\n"
$GAGSA,A,3,02,03,07,08,30,,,,,,,,2.1,0.8,2.0*27\r\n"
$GBGSA,A,3,,,,,,,,,,,,,2.1,0.8,2.0*29\r\n"
$GPGSV,2,1,07,04,48,211,47,07,23,304,44,08,43,191,48,09,47,277,48*7B\r\n"
$GPGSV,2,2,07,16,56,049,46,26,29,068,43,31,16,117,42,,,,*47\r\n"
$GLGSV,2,1,07,65,32,301,43,72,31,232,44,73,25,075,45,74,58,029,41*62\r\n"
$GLGSV,2,2,07,75,37,300,46,83,23,035,35,84,38,109,36,,,,*55\r\n"
$GAGSV,2,1,05,02,76,334,46,03,27,182,44,07,27,311,42,08,54,244,46*68\r\n"
$GAGSV,2,2,05,30,31,261,43,,,,,,,,,,,,*5E\r\n"
$GNVTG,340.71,T,,M,0.01,N,0.01,K,D*27\r\n"
$GNGST,165027.00,1.702,,,,0.309,0.249,0.811*69\r\n"
$GNZDA,165027.00,02,02,2024,00,00*7B\r\n"
$GNRMC,165028.00,A,4220.2947359,N,07105.1903875,W,0.01,340.71,020224,,,D*58\r\n"
$GNGGA,165028.00,4220.2947359,N,07105.1903875,W,5,20,0.8,23.850,M,-28.725,M,1.0,0061*54\r\
  \n"
$GPGSA,A,3,04,07,08,09,16,26,31,,,,,,2.1,0.8,2.0*38\r\n"
$GLGSA,A,3,65,72,73,74,75,83,84,,,,,,2.1,0.8,2.0*23\r\n"
$GAGSA,A,3,02,03,07,08,30,,,,,,,,2.1,0.8,2.0*27\r\n"
$GBGSA,A,3,,,,,,,,,,,,,2.1,0.8,2.0*29\r\n"
$GPGSV,2,1,07,04,48,211,46,07,23,304,44,08,43,191,48,09,47,277,48*7A\r\n"
$GPGSV,2,2,07,16,56,049,46,26,29,068,43,31,16,117,41,,,,*44\r\n"
$GLGSV,2,1,07,65,32,301,43,72,31,232,44,73,25,075,44,74,58,029,41*63\r\n"
$GLGSV,2,2,07,75,37,300,46,83,23,035,35,84,38,109,36,,,,*55\r\n"
$GAGSV,2,1,05,02,76,334,46,03,27,182,44,07,27,311,42,08,54,244,46*68\r\n"
$GAGSV,2,2,05,30,31,261,44,,,,,,,,,,,,*59\r\n"
$GNVTG,340.71,T,,M,0.01,N,0.01,K,D*27\r\n"
$GNGST,165028.00,1.747,,,,0.304,0.245,0.788*69\r\n"
$GNZDA,165028.00,02,02,2024,00,00*74\r\n"
$GNRMC,165029.00,A,4220.2947287,N,07105.1903877,W,0.01,340.71,020224,,,D*59\r\n"
$GNGGA,165029.00,4220.2947287,N,07105.1903877,W,5,20,0.8,23.831,M,-28.725,M,1.0,0061*52\r\
  \n"
$GPGSA,A,3,04,07,08,09,16,26,31,,,,,,2.1,0.8,2.0*38\r\n"
$GLGSA,A,3,65,72,73,74,75,83,84,,,,,,2.1,0.8,2.0*23\r\n"
$GAGSA,A,3,02,03,07,08,30,,,,,,,,2.1,0.8,2.0*27\r\n"
$GBGSA,A,3,,,,,,,,,,,,,2.1,0.8,2.0*29\r\n"
$GPGSV,2,1,07,04,48,211,47,07,23,304,44,08,43,191,48,09,47,277,48*7B\r\n"
$GPGSV,2,2,07,16,56,049,46,26,29,068,43,31,16,117,42,,,,*47\r\n"
$GLGSV,2,1,07,65,32,301,43,72,31,232,44,73,25,075,45,74,58,029,41*62\r\n"
$GLGSV,2,2,07,75,37,300,46,83,23,035,35,84,38,109,36,,,,*55\r\n"
$GAGSV,2,1,05,02,76,334,46,03,27,182,43,07,27,311,42,08,54,244,46*6F\r\n"
$GAGSV,2,2,05,30,31,261,44,,,,,,,,,,,,*59\r\n"
$GNVTG,340.71,T,,M,0.01,N,0.01,K,D*27\r\n"
$GNGST,165029.00,1.700,,,,0.299,0.241,0.766*6A\r\n"
$GNZDA,165029.00,02,02,2024,00,00*75\r\n"
$GNRMC,165030.00,A,4220.2947270,N,07105.1903840,W,0.01,340.71,020224,,,D*5D\r\n"
$GNGGA,165030.00,4220.2947270,N,07105.1903840,W,5,20,0.8,23.818,M,-28.725,M,1.0,0061*5D\r\
  \n"
$GPGSA,A,3,04,07,08,09,16,26,31,,,,,,2.1,0.8,2.0*38\r\n"
$GLGSA,A,3,65,72,73,74,75,83,84,,,,,,2.1,0.8,2.0*23\r\n"
$GAGSA,A,3,02,03,07,08,30,,,,,,,,2.1,0.8,2.0*27\r\n"
$GBGSA,A,3,,,,,,,,,,,,,2.1,0.8,2.0*29\r\n"
$GPGSV,2,1,07,04,48,211,46,07,23,304,44,08,43,191,48,09,47,277,48*7A\r\n"
$GPGSV,2,2,07,16,56,049,45,26,29,068,43,31,16,117,41,,,,*47\r\n"
$GLGSV,2,1,07,65,32,301,43,72,31,232,44,73,25,075,45,74,58,029,41*62\r\n"
$GLGSV,2,2,07,75,37,300,46,83,23,035,35,84,38,109,36,,,,*55\r\n"
$GAGSV,2,1,05,02,76,334,46,03,27,182,44,07,27,311,42,08,54,244,46*68\r\n"
$GAGSV,2,2,05,30,31,261,44,,,,,,,,,,,,*59\r\n"
$GNVTG,340.71,T,,M,0.01,N,0.01,K,D*27\r\n"
$GNGST,165030.00,1.588,,,,0.294,0.238,0.744*63\r\n"
$GNZDA,165030.00,02,02,2024,00,00*7D\r\n"
$GNRMC,165031.00,A,4220.2947234,N,07105.1903793,W,0.01,340.71,020224,,,D*5D\r\n"
$GNGGA,165031.00,4220.2947234,N,07105.1903793,W,5,20,0.8,23.890,M,-28.725,M,1.0,0061*5D\r\
  \n"
$GPGSA,A,3,04,07,08,09,16,26,31,,,,,,2.1,0.8,2.0*38\r\n"
$GLGSA,A,3,65,72,73,74,75,83,84,,,,,,2.1,0.8,2.0*23\r\n"
$GAGSA,A,3,02,03,07,08,30,,,,,,,,2.1,0.8,2.0*27\r\n"
$GBGSA,A,3,,,,,,,,,,,,,2.1,0.8,2.0*29\r\n"
$GPGSV,2,1,07,04,48,211,46,07,23,304,44,08,43,191,48,09,47,277,48*7A\r\n"
$GPGSV,2,2,07,16,56,049,45,26,29,068,43,31,16,117,41,,,,*47\r\n"
$GLGSV,2,1,07,65,32,301,43,72,31,232,44,73,25,075,45,74,58,029,41*62\r\n"
$GLGSV,2,2,07,75,37,300,46,83,23,035,35,84,38,109,36,,,,*55\r\n"
$GAGSV,2,1,05,02,76,334,46,03,27,182,44,07,27,311,42,08,54,244,46*68\r\n"
$GAGSV,2,2,05,30,31,261,44,,,,,,,,,,,,*59\r\n"
$GNVTG,340.71,T,,M,0.01,N,0.01,K,D*27\r\n"
$GNGST,165031.00,1.593,,,,0.289,0.235,0.723*68\r\n"
$GNZDA,165031.00,02,02,2024,00,00*7C\r\n"
$GNRMC,165032.00,A,4220.2947249,N,07105.1903671,W,0.01,340.71,020224,,,D*59\r\n"
$GNGGA,165032.00,4220.2947249,N,07105.1903671,W,5,20,0.8,23.924,M,-28.725,M,1.0,0061*57\r\
  \n"
$GPGSA,A,3,04,07,08,09,16,26,31,,,,,,2.1,0.8,1.9*32\r\n"
$GLGSA,A,3,65,72,73,74,75,83,84,,,,,,2.1,0.8,1.9*29\r\n"
$GAGSA,A,3,02,03,07,08,30,,,,,,,,2.1,0.8,1.9*2D\r\n"
$GBGSA,A,3,,,,,,,,,,,,,2.1,0.8,1.9*23\r\n"
$GPGSV,2,1,07,04,48,211,46,07,23,304,44,08,43,191,49,09,47,277,48*7B\r\n"
$GPGSV,2,2,07,16,56,049,45,26,29,068,43,31,16,117,41,,,,*47\r\n"
$GLGSV,2,1,07,65,32,301,43,72,31,232,44,73,25,075,44,74,58,029,41*63\r\n"
$GLGSV,2,2,07,75,37,300,46,83,23,035,35,84,38,109,36,,,,*55\r\n"
$GAGSV,2,1,05,02,76,334,46,03,27,182,44,07,27,311,42,08,54,244,46*68\r\n"
$GAGSV,2,2,05,30,31,261,44,,,,,,,,,,,,*59\r\n"
$GNVTG,340.71,T,,M,0.01,N,0.01,K,D*27\r\n"
$GNGST,165032.00,1.705,,,,0.284,0.231,0.701*6F\r\n"
$GNZDA,165032.00,02,02,2024,00,00*7F\r\n"
$GNRMC,165033.00,A,4220.2947325,N,07105.1903559,W,0.01,340.71,020224,,,D*5A\r\n"
$GNGGA,165033.00,4220.2947325,N,07105.1903559,W,5,20,0.8,24.028,M,-28.725,M,1.0,0061*56\r\
  \n"
$GPGSA,A,3,04,07,08,09,16,26,31,,,,,,2.1,0.8,1.9*32\r\n"
$GLGSA,A,3,65,72,73,74,75,83,84,,,,,,2.1,0.8,1.9*29\r\n"
$GAGSA,A,3,02,03,07,08,30,,,,,,,,2.1,0.8,1.9*2D\r\n"
$GBGSA,A,3,,,,,,,,,,,,,2.1,0.8,1.9*23\r\n"
$GPGSV,2,1,07,04,48,211,46,07,23,304,44,08,43,191,48,09,47,277,48*7A\r\n"
$GPGSV,2,2,07,16,56,049,45,26,29,068,43,31,16,117,41,,,,*47\r\n"
$GLGSV,2,1,07,65,32,301,43,72,31,232,44,73,25,075,44,74,58,029,41*63\r\n"
$GLGSV,2,2,07,75,37,300,46,83,23,035,35,84,38,109,36,,,,*55\r\n"
$GAGSV,2,1,05,02,76,334,46,03,27,182,44,07,27,311,42,08,54,244,46*68\r\n"
$GAGSV,2,2,05,30,31,261,44,,,,,,,,,,,,*59\r\n"
$GNVTG,340.71,T,,M,0.01,N,0.01,K,D*27\r\n"
$GNGST,165033.00,1.733,,,,0.279,0.228,0.680*69\r\n"
$GNZDA,165033.00,02,02,2024,00,00*7E\r\n"
$GNRMC,165034.00,A,4220.2947382,N,07105.1903389,W,0.01,340.71,020224,,,D*5B\r\n"
$GNGGA,165034.00,4220.2947382,N,07105.1903389,W,5,20,0.8,24.082,M,-28.725,M,1.0,0061*57\r\
  \n"
$GPGSA,A,3,04,07,08,09,16,26,31,,,,,,2.1,0.8,1.9*32\r\n"
$GLGSA,A,3,65,72,73,74,75,83,84,,,,,,2.1,0.8,1.9*29\r\n"
$GAGSA,A,3,02,03,07,08,30,,,,,,,,2.1,0.8,1.9*2D\r\n"
$GBGSA,A,3,,,,,,,,,,,,,2.1,0.8,1.9*23\r\n"
$GPGSV,2,1,07,04,48,211,47,07,23,304,44,08,43,191,49,09,47,276,48*7B\r\n"
$GPGSV,2,2,07,16,56,049,45,26,29,068,43,31,16,117,41,,,,*47\r\n"
$GLGSV,2,1,07,65,32,301,43,72,31,232,44,73,25,075,44,74,58,029,41*63\r\n"
$GLGSV,2,2,07,75,37,300,46,83,23,035,35,84,38,109,36,,,,*55\r\n"
$GAGSV,2,1,05,02,76,334,46,03,27,182,44,07,28,311,42,08,54,244,46*67\r\n"
$GAGSV,2,2,05,30,31,261,44,,,,,,,,,,,,*59\r\n"
$GNVTG,340.71,T,,M,0.01,N,0.01,K,D*27\r\n"
$GNGST,165034.00,1.739,,,,0.275,0.225,0.659*61\r\n"
$GNZDA,165034.00,02,02,2024,00,00*79\r\n"
$GNRMC,165035.00,A,4220.2947405,N,07105.1903237,W,0.01,340.71,020224,,,D*56\r\n"
$GNGGA,165035.00,4220.2947405,N,07105.1903237,W,5,20,0.8,24.104,M,-28.725,M,2.0,0061*56\r\
  \n"
$GPGSA,A,3,04,07,08,09,16,26,31,,,,,,2.1,0.8,1.9*32\r\n"
$GLGSA,A,3,65,72,73,74,75,83,84,,,,,,2.1,0.8,1.9*29\r\n"
$GAGSA,A,3,02,03,07,08,30,,,,,,,,2.1,0.8,1.9*2D\r\n"
$GBGSA,A,3,,,,,,,,,,,,,2.1,0.8,1.9*23\r\n"
$GPGSV,2,1,07,04,48,211,47,07,23,304,44,08,43,191,48,09,47,276,48*7A\r\n"
$GPGSV,2,2,07,16,56,049,45,26,29,068,43,31,16,117,41,,,,*47\r\n"
$GLGSV,2,1,07,65,32,301,43,72,31,232,44,73,25,075,44,74,58,029,41*63\r\n"
$GLGSV,2,2,07,75,37,300,46,83,23,035,35,84,38,109,36,,,,*55\r\n"
$GAGSV,2,1,05,02,76,334,46,03,27,182,44,07,28,311,42,08,54,244,46*67\r\n"
$GAGSV,2,2,05,30,31,261,44,,,,,,,,,,,,*59\r\n"
$GNVTG,340.71,T,,M,0.01,N,0.01,K,D*27\r\n"
$GNGST,165035.00,1.721,,,,0.270,0.222,0.641*62\r\n"
$GNZDA,165035.00,02,02,2024,00,00*78\r\n"
$GNRMC,165036.00,A,4220.2947389,N,07105.1903152,W,0.01,340.71,020224,,,D*56\r\n"
$GNGGA,165036.00,4220.2947389,N,07105.1903152,W,5,20,0.8,24.112,M,-28.725,M,1.0,0061*52\r\
  \n"
$GPGSA,A,3,04,07,08,09,16,26,31,,,,,,2.1,0.8,2.0*38\r\n"
$GLGSA,A,3,65,72,73,74,75,83,84,,,,,,2.1,0.8,2.0*23\r\n"
$GAGSA,A,3,02,03,07,08,30,,,,,,,,2.1,0.8,2.0*27\r\n"
$GBGSA,A,3,,,,,,,,,,,,,2.1,0.8,2.0*29\r\n"
$GPGSV,2,1,07,04,48,211,46,07,23,304,44,08,43,191,49,09,47,276,48*7A\r\n"
$GPGSV,2,2,07,16,56,049,45,26,29,068,42,31,16,117,41,,,,*46\r\n"
$GLGSV,2,1,07,65,32,301,43,72,31,232,44,73,25,075,45,74,58,029,41*62\r\n"
$GLGSV,2,2,07,75,37,300,46,83,23,035,35,84,38,109,36,,,,*55\r\n"
$GAGSV,2,1,05,02,76,334,46,03,27,182,44,07,28,311,42,08,54,244,46*67\r\n"
$GAGSV,2,2,05,30,31,261,44,,,,,,,,,,,,*59\r\n"
$GNVTG,340.71,T,,M,0.01,N,0.01,K,D*27\r\n"
$GNGST,165036.00,1.547,,,,0.266,0.219,0.622*69\r\n"
$GNZDA,165036.00,02,02,2024,00,00*7B\r\n"
$GNRMC,165037.00,A,4220.2947436,N,07105.1903080,W,0.01,340.71,020224,,,D*5A\r\n"
$GNGGA,165037.00,4220.2947436,N,07105.1903080,W,5,20,0.8,24.156,M,-28.725,M,1.0,0061*5E\r\
  \n"
$GPGSA,A,3,04,07,08,09,16,26,31,,,,,,2.1,0.8,2.0*38\r\n"
$GLGSA,A,3,65,72,73,74,75,83,84,,,,,,2.1,0.8,2.0*23\r\n"
$GAGSA,A,3,02,03,07,08,30,,,,,,,,2.1,0.8,2.0*27\r\n"
$GBGSA,A,3,,,,,,,,,,,,,2.1,0.8,2.0*29\r\n"
$GPGSV,2,1,07,04,48,211,46,07,23,304,44,08,43,191,49,09,47,276,48*7A\r\n"
$GPGSV,2,2,07,16,56,049,45,26,29,068,42,31,16,117,41,,,,*46\r\n"
$GLGSV,2,1,07,65,32,301,43,72,31,232,43,73,25,075,45,74,58,029,41*65\r\n"
$GLGSV,2,2,07,75,37,300,46,83,23,035,35,84,38,109,36,,,,*55\r\n"
$GAGSV,2,1,05,02,76,334,46,03,27,182,44,07,28,311,42,08,54,244,46*67\r\n"
$GAGSV,2,2,05,30,31,261,44,,,,,,,,,,,,*59\r\n"
$GNVTG,340.71,T,,M,0.01,N,0.01,K,D*27\r\n"
$GNGST,165037.00,1.600,,,,0.262,0.216,0.604*67\r\n"
$GNZDA,165037.00,02,02,2024,00,00*7A\r\n"
$GNRMC,165038.00,A,4220.2947424,N,07105.1903006,W,0.01,340.71,020224,,,D*58\r\n"
$GNGGA,165038.00,4220.2947424,N,07105.1903006,W,5,20,0.8,24.147,M,-28.725,M,1.0,0061*5C\r\
  \n"
$GPGSA,A,3,04,07,08,09,16,26,31,,,,,,2.1,0.8,2.0*38\r\n"
$GLGSA,A,3,65,72,73,74,75,83,84,,,,,,2.1,0.8,2.0*23\r\n"
$GAGSA,A,3,02,03,07,08,30,,,,,,,,2.1,0.8,2.0*27\r\n"
$GBGSA,A,3,,,,,,,,,,,,,2.1,0.8,2.0*29\r\n"
$GPGSV,2,1,07,04,48,211,47,07,23,304,44,08,43,191,49,09,47,276,48*7B\r\n"
$GPGSV,2,2,07,16,56,049,45,26,29,068,43,31,16,117,41,,,,*47\r\n"
$GLGSV,2,1,07,65,32,301,43,72,31,232,44,73,25,075,45,74,58,029,41*62\r\n"
$GLGSV,2,2,07,75,37,300,46,83,23,035,35,84,38,109,36,,,,*55\r\n"
$GAGSV,2,1,05,02,76,334,46,03,27,182,43,07,28,311,42,08,54,244,46*60\r\n"
$GAGSV,2,2,05,30,31,261,44,,,,,,,,,,,,*59\r\n"
$GNVTG,340.71,T,,M,0.01,N,0.01,K,D*27\r\n"
$GNGST,165038.00,1.605,,,,0.258,0.213,0.587*69\r\n"
$GNZDA,165038.00,02,02,2024,00,00*75\r\n"
$GNRMC,165039.00,A,4220.2947451,N,07105.1902949,W,0.01,340.71,020224,,,D*58\r\n"
$GNGGA,165039.00,4220.2947451,N,07105.1902949,W,5,20,0.8,24.149,M,-28.725,M,1.0,0061*52\r\
  \n"
$GPGSA,A,3,04,07,08,09,16,26,31,,,,,,2.1,0.8,1.9*32\r\n"
$GLGSA,A,3,65,72,73,74,75,83,84,,,,,,2.1,0.8,1.9*29\r\n"
$GAGSA,A,3,02,03,07,08,30,,,,,,,,2.1,0.8,1.9*2D\r\n"
$GBGSA,A,3,,,,,,,,,,,,,2.1,0.8,1.9*23\r\n"
$GPGSV,2,1,07,04,48,211,47,07,23,304,44,08,43,191,48,09,47,276,48*7A\r\n"
$GPGSV,2,2,07,16,56,049,45,26,29,068,43,31,16,117,40,,,,*46\r\n"
$GLGSV,2,1,07,65,32,301,43,72,31,232,44,73,25,075,44,74,58,029,41*63\r\n"
$GLGSV,2,2,07,75,37,300,46,83,23,035,36,84,38,109,36,,,,*56\r\n"
$GAGSV,2,1,05,02,76,334,46,03,27,182,43,07,28,311,42,08,54,244,46*60\r\n"
$GAGSV,2,2,05,30,31,261,44,,,,,,,,,,,,*59\r\n"
$GNVTG,340.71,T,,M,0.01,N,0.01,K,D*27\r\n"
$GNGST,165039.00,1.636,,,,0.254,0.211,0.570*6E\r\n"
$GNZDA,165039.00,02,02,2024,00,00*74\r\n"
$GNRMC,165040.00,A,4220.2947463,N,07105.1902941,W,0.01,340.71,020224,,,D*5F\r\n"
$GNGGA,165040.00,4220.2947463,N,07105.1902941,W,5,20,0.8,24.123,M,-28.725,M,1.0,0061*59\r\
  \n"
$GPGSA,A,3,04,07,08,09,16,26,31,,,,,,2.1,0.8,1.9*32\r\n"
$GLGSA,A,3,65,72,73,74,75,83,84,,,,,,2.1,0.8,1.9*29\r\n"
$GAGSA,A,3,02,03,07,08,30,,,,,,,,2.1,0.8,1.9*2D\r\n"
$GBGSA,A,3,,,,,,,,,,,,,2.1,0.8,1.9*23\r\n"
$GPGSV,2,1,07,04,48,211,46,07,23,304,44,08,43,191,48,09,47,276,48*7B\r\n"
$GPGSV,2,2,07,16,56,049,45,26,29,068,43,31,16,117,40,,,,*46\r\n"
$GLGSV,2,1,07,65,32,301,43,72,31,232,44,73,25,075,45,74,58,029,41*62\r\n"
$GLGSV,2,2,07,75,37,300,46,83,23,035,36,84,38,109,37,,,,*57\r\n"
$GAGSV,2,1,05,02,76,334,46,03,27,182,43,07,28,311,42,08,54,244,46*60\r\n"
$GAGSV,2,2,05,30,31,261,44,,,,,,,,,,,,*59\r\n"
$GNVTG,340.71,T,,M,0.01,N,0.01,K,D*27\r\n"
$GNGST,165040.00,1.539,,,,0.250,0.208,0.553*61\r\n"
$GNZDA,165040.00,02,02,2024,00,00*7A\r\n"
$GNRMC,165041.00,A,4220.2947492,N,07105.1902930,W,0.01,340.71,020224,,,D*56\r\n"
$GNGGA,165041.00,4220.2947492,N,07105.1902930,W,5,20,0.8,24.067,M,-28.725,M,2.0,0061*52\r\
  \n"
$GPGSA,A,3,04,07,08,09,16,26,31,,,,,,2.1,0.8,1.9*32\r\n"
$GLGSA,A,3,65,72,73,74,75,83,84,,,,,,2.1,0.8,1.9*29\r\n"
$GAGSA,A,3,02,03,07,08,30,,,,,,,,2.1,0.8,1.9*2D\r\n"
$GBGSA,A,3,,,,,,,,,,,,,2.1,0.8,1.9*23\r\n"
$GPGSV,2,1,07,04,48,211,47,07,23,304,44,08,43,191,49,09,47,276,48*7B\r\n"
$GPGSV,2,2,07,16,56,049,46,26,29,068,43,31,16,117,40,,,,*45\r\n"
$GLGSV,2,1,07,65,32,301,43,72,31,232,44,73,25,075,45,74,58,029,41*62\r\n"
$GLGSV,2,2,07,75,37,300,46,83,23,035,36,84,38,109,37,,,,*57\r\n"
$GAGSV,2,1,05,02,76,334,46,03,27,182,42,07,28,311,42,08,54,244,46*61\r\n"
$GAGSV,2,2,05,30,31,261,44,,,,,,,,,,,,*59\r\n"
$GNVTG,340.71,T,,M,0.01,N,0.01,K,D*27\r\n"
$GNGST,165041.00,1.364,,,,0.246,0.206,0.538*6A\r\n"
$GNZDA,165041.00,02,02,2024,00,00*7B\r\n"
$GNRMC,165042.00,A,4220.2947446,N,07105.1902945,W,0.01,340.71,020224,,,D*5E\r\n"
$GNGGA,165042.00,4220.2947446,N,07105.1902945,W,5,20,0.8,24.013,M,-28.725,M,1.0,0061*5A\r\
  \n"
$GPGSA,A,3,04,07,08,09,16,26,31,,,,,,2.1,0.8,2.0*38\r\n"
$GLGSA,A,3,65,72,73,74,75,83,84,,,,,,2.1,0.8,2.0*23\r\n"
$GAGSA,A,3,02,03,07,08,30,,,,,,,,2.1,0.8,2.0*27\r\n"
$GBGSA,A,3,,,,,,,,,,,,,2.1,0.8,2.0*29\r\n"
$GPGSV,2,1,07,04,48,211,47,07,23,304,44,08,43,191,49,09,47,276,48*7B\r\n"
$GPGSV,2,2,07,16,56,049,46,26,29,068,42,31,16,117,40,,,,*44\r\n"
$GLGSV,2,1,07,65,32,301,43,72,31,232,44,73,25,075,45,74,58,029,41*62\r\n"
$GLGSV,2,2,07,75,37,300,46,83,23,035,36,84,38,109,36,,,,*56\r\n"
$GAGSV,2,1,05,02,76,334,46,03,27,182,42,07,28,311,42,08,54,244,45*62\r\n"
$GAGSV,2,2,05,30,31,261,43,,,,,,,,,,,,*5E\r\n"
$GNVTG,340.71,T,,M,0.01,N,0.01,K,D*27\r\n"
$GNGST,165042.00,1.326,,,,0.243,0.203,0.523*65\r\n"
$GNZDA,165042.00,02,02,2024,00,00*78\r\n"
$GNRMC,165043.00,A,4220.2947422,N,07105.1902981,W,0.01,340.71,020224,,,D*55\r\n"
$GNGGA,165043.00,4220.2947422,N,07105.1902981,W,5,20,0.8,23.942,M,-28.725,M,2.0,0061*58\r\
  \n"
$GPGSA,A,3,04,07,08,09,16,26,31,,,,,,2.1,0.8,2.0*38\r\n"
$GLGSA,A,3,65,72,73,74,75,83,84,,,,,,2.1,0.8,2.0*23\r\n"
$GAGSA,A,3,02,03,07,08,30,,,,,,,,2.1,0.8,2.0*27\r\n"
$GBGSA,A,3,,,,,,,,,,,,,2.1,0.8,2.0*29\r\n"
$GPGSV,2,1,07,04,48,211,46,07,23,304,44,08,43,191,49,09,47,276,48*7A\r\n"
$GPGSV,2,2,07,16,56,049,46,26,29,068,43,31,16,117,40,,,,*45\r\n"
$GLGSV,2,1,07,65,32,301,43,72,31,232,44,73,25,075,45,74,58,029,41*62\r\n"
$GLGSV,2,2,07,75,37,300,46,83,23,035,36,84,38,109,37,,,,*57\r\n"
$GAGSV,2,1,05,02,76,334,46,03,27,182,43,07,28,311,42,08,54,244,45*63\r\n"
$GAGSV,2,2,05,30,31,261,44,,,,,,,,,,,,*59\r\n"
$GNVTG,340.71,T,,M,0.01,N,0.01,K,D*27\r\n"
$GNGST,165043.00,1.240,,,,0.239,0.201,0.509*62\r\n"
$GNZDA,165043.00,02,02,2024,00,00*79\r\n"
$GNRMC,165044.00,A,4220.2947371,N,07105.1902977,W,0.01,340.71,020224,,,D*5A\r\n"
$GNGGA,165044.00,4220.2947371,N,07105.1902977,W,5,20,0.8,23.883,M,-28.725,M,1.0,0061*58\r\
  \n"
$GPGSA,A,3,04,07,08,09,16,26,31,,,,,,2.1,0.8,2.0*38\r\n"
$GLGSA,A,3,65,72,73,74,75,83,84,,,,,,2.1,0.8,2.0*23\r\n"
$GAGSA,A,3,02,03,07,08,30,,,,,,,,2.1,0.8,2.0*27\r\n"
$GBGSA,A,3,,,,,,,,,,,,,2.1,0.8,2.0*29\r\n"
$GPGSV,2,1,07,04,48,211,47,07,23,304,44,08,43,191,49,09,47,276,48*7B\r\n"
$GPGSV,2,2,07,16,56,049,46,26,29,068,42,31,16,117,40,,,,*44\r\n"
$GLGSV,2,1,07,65,32,301,43,72,31,232,44,73,25,075,45,74,58,029,41*62\r\n"
$GLGSV,2,2,07,75,37,300,46,83,23,035,36,84,38,109,36,,,,*56\r\n"
$GAGSV,2,1,05,02,76,334,46,03,27,182,43,07,28,311,42,08,54,244,45*63\r\n"
$GAGSV,2,2,05,30,31,261,44,,,,,,,,,,,,*59\r\n"
$GNVTG,340.71,T,,M,0.01,N,0.01,K,D*27\r\n"
$GNGST,165044.00,1.271,,,,0.236,0.199,0.495*6E\r\n"
$GNZDA,165044.00,02,02,2024,00,00*7E\r\n"
$GNRMC,165045.00,A,4220.2947277,N,07105.1903012,W,0.01,340.71,020224,,,D*57\r\n"
$GNGGA,165045.00,4220.2947277,N,07105.1903012,W,5,20,0.8,23.788,M,-28.725,M,2.0,0061*52\r\
  \n"
$GPGSA,A,3,04,07,08,09,16,26,31,,,,,,2.1,0.8,2.0*38\r\n"
$GLGSA,A,3,65,72,73,74,75,83,84,,,,,,2.1,0.8,2.0*23\r\n"
$GAGSA,A,3,02,03,07,08,30,,,,,,,,2.1,0.8,2.0*27\r\n"
$GBGSA,A,3,,,,,,,,,,,,,2.1,0.8,2.0*29\r\n"
$GPGSV,2,1,07,04,48,211,47,07,23,304,44,08,43,191,49,09,47,276,48*7B\r\n"
$GPGSV,2,2,07,16,56,049,46,26,29,068,42,31,16,117,41,,,,*45\r\n"
$GLGSV,2,1,07,65,32,301,43,72,31,232,44,73,25,075,45,74,58,029,40*63\r\n"
$GLGSV,2,2,07,75,37,300,46,83,23,035,36,84,38,109,36,,,,*56\r\n"
$GAGSV,2,1,05,02,76,334,46,03,27,182,44,07,28,311,42,08,54,244,45*64\r\n"
$GAGSV,2,2,05,30,31,261,44,,,,,,,,,,,,*59\r\n"
$GNVTG,340.71,T,,M,0.01,N,0.01,K,D*27\r\n"
$GNGST,165045.00,1.293,,,,0.233,0.197,0.483*6F\r\n"
$GNZDA,165045.00,02,02,2024,00,00*7F\r\n"
$GNRMC,165046.00,A,4220.2947212,N,07105.1903032,W,0.01,340.71,020224,,,D*55\r\n"
$GNGGA,165046.00,4220.2947212,N,07105.1903032,W,5,20,0.8,23.776,M,-28.725,M,1.0,0061*52\r\
  \n"
$GPGSA,A,3,04,07,08,09,16,26,31,,,,,,2.1,0.8,2.0*38\r\n"
$GLGSA,A,3,65,72,73,74,75,83,84,,,,,,2.1,0.8,2.0*23\r\n"
$GAGSA,A,3,02,03,07,08,30,,,,,,,,2.1,0.8,2.0*27\r\n"
$GBGSA,A,3,,,,,,,,,,,,,2.1,0.8,2.0*29\r\n"
$GPGSV,2,1,07,04,48,211,47,07,23,304,44,08,43,191,49,09,47,276,49*7A\r\n"
$GPGSV,2,2,07,16,56,049,46,26,29,068,42,31,16,117,41,,,,*45\r\n"
$GLGSV,2,1,07,65,32,301,44,72,31,232,44,73,25,075,45,74,58,029,41*65\r\n"
$GLGSV,2,2,07,75,37,300,46,83,23,035,36,84,38,109,37,,,,*57\r\n"
$GAGSV,2,1,05,02,76,334,46,03,27,182,44,07,28,311,42,08,54,244,45*64\r\n"
$GAGSV,2,2,05,30,31,261,44,,,,,,,,,,,,*59\r\n"
$GNVTG,340.71,T,,M,0.01,N,0.01,K,D*27\r\n"
$GNGST,165046.00,1.194,,,,0.230,0.195,0.470*65\r\n"
$GNZDA,165046.00,02,02,2024,00,00*7C\r\n"
$GNRMC,165047.00,A,4220.2947176,N,07105.1903038,W,0.01,340.71,020224,,,D*5F\r\n"
$GNGGA,165047.00,4220.2947176,N,07105.1903038,W,5,20,0.8,23.742,M,-28.725,M,1.0,0061*5F\r\
  \n"
$GPGSA,A,3,04,07,08,09,16,26,31,,,,,,2.1,0.8,2.0*38\r\n"
$GLGSA,A,3,65,72,73,74,75,83,84,,,,,,2.1,0.8,2.0*23\r\n"
$GAGSA,A,3,02,03,07,08,30,,,,,,,,2.1,0.8,2.0*27\r\n"
$GBGSA,A,3,,,,,,,,,,,,,2.1,0.8,2.0*29\r\n"
$GPGSV,2,1,07,04,48,211,46,07,23,304,44,08,43,191,48,09,47,276,48*7B\r\n"
$GPGSV,2,2,07,16,56,049,46,26,29,068,43,31,16,117,41,,,,*44\r\n"
$GLGSV,2,1,07,65,32,301,44,72,31,232,44,73,25,075,45,74,58,029,41*65\r\n"
$GLGSV,2,2,07,75,37,300,46,83,23,035,36,84,38,109,36,,,,*56\r\n"
$GAGSV,2,1,05,02,76,334,46,03,27,182,43,07,28,311,42,08,54,244,45*63\r\n"
$GAGSV,2,2,05,30,31,261,44,,,,,,,,,,,,*59\r\n"
$GNVTG,340.71,T,,M,0.01,N,0.01,K,D*27\r\n"
$GNGST,165047.00,1.234,,,,0.226,0.192,0.457*68\r\n"
$GNZDA,165047.00,02,02,2024,00,00*7D\r\n"
$GNRMC,165048.00,A,4220.2947124,N,07105.1903083,W,0.01,340.71,020224,,,D*57\r\n"
$GNGGA,165048.00,4220.2947124,N,07105.1903083,W,5,20,0.8,23.697,M,-28.725,M,2.0,0061*5D\r\
  \n"
$GPGSA,A,3,04,07,08,09,16,26,31,,,,,,2.1,0.8,2.0*38\r\n"
$GLGSA,A,3,65,72,73,74,75,83,84,,,,,,2.1,0.8,2.0*23\r\n"
$GAGSA,A,3,02,03,07,08,30,,,,,,,,2.1,0.8,2.0*27\r\n"
$GBGSA,A,3,,,,,,,,,,,,,2.1,0.8,2.0*29\r\n"
$GPGSV,2,1,07,04,48,211,46,07,23,304,44,08,43,191,48,09,47,276,48*7B\r\n"
$GPGSV,2,2,07,16,56,049,46,26,29,068,42,31,16,117,41,,,,*45\r\n"
$GLGSV,2,1,07,65,32,301,43,72,31,232,44,73,25,075,45,74,58,029,41*62\r\n"
$GLGSV,2,2,07,75,37,300,46,83,23,035,36,84,38,109,36,,,,*56\r\n"
$GAGSV,2,1,05,02,76,334,46,03,27,182,43,07,28,311,42,08,54,244,45*63\r\n"
$GAGSV,2,2,05,30,31,261,44,,,,,,,,,,,,*59\r\n"
$GNVTG,340.71,T,,M,0.01,N,0.01,K,D*27\r\n"
$GNGST,165048.00,1.236,,,,0.223,0.191,0.446*63\r\n"
$GNZDA,165048.00,02,02,2024,00,00*72\r\n"
$GNRMC,165049.00,A,4220.2947014,N,07105.1903078,W,0.01,340.71,020224,,,D*50\r\n"
$GNGGA,165049.00,4220.2947014,N,07105.1903078,W,5,20,0.8,23.654,M,-28.725,M,1.0,0061*56\r\
  \n"
$GPGSA,A,3,04,07,08,09,16,26,31,,,,,,2.1,0.8,2.0*38\r\n"
$GLGSA,A,3,65,72,73,74,75,83,84,,,,,,2.1,0.8,2.0*23\r\n"
$GAGSA,A,3,02,03,07,08,30,,,,,,,,2.1,0.8,2.0*27\r\n"
$GBGSA,A,3,,,,,,,,,,,,,2.1,0.8,2.0*29\r\n"
$GPGSV,2,1,07,04,48,211,46,07,23,304,44,08,43,191,48,09,47,276,48*7B\r\n"
$GPGSV,2,2,07,16,56,049,46,26,29,068,43,31,16,117,41,,,,*44\r\n"
$GLGSV,2,1,07,65,32,301,43,72,31,232,43,73,25,075,45,74,57,029,41*6A\r\n"
$GLGSV,2,2,07,75,37,300,46,83,23,035,36,84,38,109,36,,,,*56\r\n"
$GAGSV,2,1,05,02,76,334,46,03,27,182,43,07,28,311,42,08,54,244,45*63\r\n"
$GAGSV,2,2,05,30,31,261,44,,,,,,,,,,,,*59\r\n"
$GNVTG,340.71,T,,M,0.01,N,0.01,K,D*27\r\n"
$GNGST,165049.00,1.245,,,,0.220,0.189,0.435*68\r\n"
$GNZDA,165049.00,02,02,2024,00,00*73\r\n"
$GNRMC,165050.00,A,4220.2946880,N,07105.1903093,W,0.01,340.71,020224,,,D*59\r\n"
$GNGGA,165050.00,4220.2946880,N,07105.1903093,W,5,20,0.8,23.579,M,-28.725,M,2.0,0061*50\r\
  \n"
$GPGSA,A,3,04,07,08,09,16,26,31,,,,,,2.1,0.8,2.0*38\r\n"
$GLGSA,A,3,65,72,73,74,75,83,84,,,,,,2.1,0.8,2.0*23\r\n"
$GAGSA,A,3,02,03,07,08,30,,,,,,,,2.1,0.8,2.0*27\r\n"
$GBGSA,A,3,,,,,,,,,,,,,2.1,0.8,2.0*29\r\n"
$GPGSV,2,1,07,04,47,211,46,07,23,304,44,08,43,191,48,09,47,276,48*74\r\n"
$GPGSV,2,2,07,16,56,049,46,26,29,068,43,31,16,117,41,,,,*44\r\n"
$GLGSV,2,1,07,65,32,301,43,72,31,232,44,73,25,075,45,74,57,029,40*6C\r\n"
$GLGSV,2,2,07,75,37,300,46,83,23,035,37,84,38,109,36,,,,*57\r\n"
$GAGSV,2,1,05,02,76,334,46,03,27,182,44,07,28,311,42,08,54,244,45*64\r\n"
$GAGSV,2,2,05,30,31,261,44,,,,,,,,,,,,*59\r\n"
$GNVTG,340.71,T,,M,0.01,N,0.01,K,D*27\r\n"
$GNGST,165050.00,1.270,,,,0.218,0.187,0.424*63\r\n"
$GNZDA,165050.00,02,02,2024,00,00*7B\r\n"
$GNRMC,165051.00,A,4220.2946808,N,07105.1903114,W,0.01,340.71,020224,,,D*56\r\n"
$GNGGA,165051.00,4220.2946808,N,07105.1903114,W,5,20,0.8,23.551,M,-28.725,M,1.0,0061*56\r\
  \n"
$GPGSA,A,3,04,07,08,09,16,26,31,,,,,,2.1,0.8,2.0*38\r\n"
$GLGSA,A,3,65,72,73,74,75,83,84,,,,,,2.1,0.8,2.0*23\r\n"
$GAGSA,A,3,02,03,07,08,30,,,,,,,,2.1,0.8,2.0*27\r\n"
$GBGSA,A,3,,,,,,,,,,,,,2.1,0.8,2.0*29\r\n"
$GPGSV,2,1,07,04,47,211,46,07,23,304,43,08,43,191,48,09,47,276,48*73\r\n"
$GPGSV,2,2,07,16,56,049,46,26,29,068,42,31,16,117,41,,,,*45\r\n"
$GLGSV,2,1,07,65,32,301,43,72,31,232,44,73,24,075,45,74,57,029,41*6C\r\n"
$GLGSV,2,2,07,75,37,300,47,83,23,035,37,84,38,109,36,,,,*56\r\n"
$GAGSV,2,1,05,02,76,334,46,03,27,182,43,07,28,311,41,08,54,244,45*60\r\n"
$GAGSV,2,2,05,30,31,261,44,,,,,,,,,,,,*59\r\n"
$GNVTG,340.71,T,,M,0.01,N,0.01,K,D*27\r\n"
$GNGST,165051.00,1.208,,,,0.215,0.185,0.413*66\r\n"
$GNZDA,165051.00,02,02,2024,00,00*7A\r\n"
$GNRMC,165052.00,A,4220.2946694,N,07105.1903119,W,0.01,340.71,020224,,,D*53\r\n"
$GNGGA,165052.00,4220.2946694,N,07105.1903119,W,5,20,0.8,23.518,M,-28.725,M,1.0,0061*5E\r\
  \n"
$GPGSA,A,3,04,07,08,09,16,26,31,,,,,,2.1,0.8,2.0*38\r\n"
$GLGSA,A,3,65,72,73,74,75,83,84,,,,,,2.1,0.8,2.0*23\r\n"
$GAGSA,A,3,02,03,07,08,30,,,,,,,,2.1,0.8,2.0*27\r\n"
$GBGSA,A,3,,,,,,,,,,,,,2.1,0.8,2.0*29\r\n"
$GPGSV,2,1,07,04,47,211,46,07,23,304,44,08,43,191,48,09,47,276,48*74\r\n"
$GPGSV,2,2,07,16,56,049,46,26,29,068,42,31,16,117,41,,,,*45\r\n"
$GLGSV,2,1,07,65,32,301,43,72,31,232,44,73,24,075,45,74,57,029,41*6C\r\n"
$GLGSV,2,2,07,75,37,300,46,83,23,035,37,84,38,109,36,,,,*57\r\n"
$GAGSV,2,1,05,02,76,334,46,03,27,182,44,07,28,311,42,08,54,244,45*64\r\n"
$GAGSV,2,2,05,30,31,261,43,,,,,,,,,,,,*5E\r\n"
$GNVTG,340.71,T,,M,0.01,N,0.01,K,D*27\r\n"
$GNGST,165052.00,1.188,,,,0.212,0.183,0.403*6E\r\n"
$GNZDA,165052.00,02,02,2024,00,00*79\r\n"
$GNRMC,165053.00,A,4220.2946563,N,07105.1903124,W,0.01,340.71,020224,,,D*57\r\n"
$GNGGA,165053.00,4220.2946563,N,07105.1903124,W,5,20,0.8,23.473,M,-28.725,M,2.0,0061*55\r\
  \n"
$GPGSA,A,3,04,07,08,09,16,26,31,,,,,,2.1,0.8,2.0*38\r\n"
$GLGSA,A,3,65,72,73,74,75,83,84,,,,,,2.1,0.8,2.0*23\r\n"
$GAGSA,A,3,02,03,07,08,30,,,,,,,,2.1,0.8,2.0*27\r\n"
$GBGSA,A,3,,,,,,,,,,,,,2.1,0.8,2.0*29\r\n"
$GPGSV,2,1,07,04,47,211,46,07,23,304,45,08,43,191,48,09,47,276,48*75\r\n"
$GPGSV,2,2,07,16,56,049,46,26,29,068,42,31,16,117,41,,,,*45\r\n"
$GLGSV,2,1,07,65,32,301,43,72,31,232,44,73,24,075,45,74,57,029,41*6C\r\n"
$GLGSV,2,2,07,75,37,300,46,83,23,035,37,84,38,109,36,,,,*57\r\n"
$GAGSV,2,1,05,02,76,334,46,03,27,182,43,07,28,311,42,08,54,244,45*63\r\n"
$GAGSV,2,2,05,30,31,261,43,,,,,,,,,,,,*5E\r\n"
$GNVTG,340.71,T,,M,0.01,N,0.01,K,D*27\r\n"
$GNGST,165053.00,1.228,,,,0.209,0.181,0.394*67\r\n"
$GNZDA,165053.00,02,02,2024,00,00*78\r\n"
$GNRMC,165054.00,A,4220.2946524,N,07105.1903127,W,0.01,340.71,020224,,,D*50\r\n"
$GNGGA,165054.00,4220.2946524,N,07105.1903127,W,5,17,0.8,23.463,M,-28.725,M,1.0,0061*54\r\
  \n"
$GPGSA,A,3,04,07,08,09,16,26,31,,,,,,2.2,0.8,2.0*3B\r\n"
$GLGSA,A,3,65,72,73,74,75,,,,,,,,2.2,0.8,2.0*27\r\n"
$GAGSA,A,3,02,03,07,08,30,,,,,,,,2.2,0.8,2.0*24\r\n"
$GBGSA,A,3,,,,,,,,,,,,,2.2,0.8,2.0*2A\r\n"
$GPGSV,2,1,07,04,47,211,42,07,23,304,40,08,43,191,45,09,47,276,44*75\r\n"
$GPGSV,2,2,07,16,56,049,42,26,29,068,39,31,16,117,37,,,,*4C\r\n"
$GLGSV,2,1,05,65,32,301,40,72,31,232,40,73,24,075,42,74,57,029,37*6F\r\n"
$GLGSV,2,2,05,75,37,300,43,,,,,,,,,,,,*52\r\n"
$GAGSV,2,1,05,02,76,334,42,03,27,182,39,07,28,311,38,08,54,244,41*63\r\n"
$GAGSV,2,2,05,30,31,261,39,,,,,,,,,,,,*53\r\n"
$GNVTG,340.71,T,,M,0.01,N,0.01,K,D*27\r\n"
$GNGST,165054.00,1.454,,,,0.207,0.180,0.385*62\r\n"
$GNZDA,165054.00,02,02,2024,00,00*7F\r\n"
$GNRMC,165055.00,A,4220.2946475,N,07105.1903135,W,0.01,340.71,020224,,,D*57\r\n"
$GNGGA,165055.00,4220.2946475,N,07105.1903135,W,5,18,0.8,23.455,M,-28.725,M,1.0,0061*59\r\
  \n"
$GPGSA,A,3,04,07,08,09,16,26,31,,,,,,2.2,0.8,2.0*3B\r\n"
$GLGSA,A,3,65,72,73,74,75,,,,,,,,2.2,0.8,2.0*27\r\n"
$GAGSA,A,3,02,03,07,08,30,,,,,,,,2.2,0.8,2.0*24\r\n"
$GBGSA,A,3,,,,,,,,,,,,,2.2,0.8,2.0*2A\r\n"
$GPGSV,2,1,07,04,47,211,44,07,23,304,41,08,43,191,46,09,47,276,46*73\r\n"
$GPGSV,2,2,07,16,56,049,43,26,29,068,40,31,16,117,39,,,,*4D\r\n"
$GLGSV,2,1,05,65,32,300,41,72,31,232,39,73,24,075,43,74,57,029,39*6E\r\n"
$GLGSV,2,2,05,75,37,300,44,,,,,,,,,,,,*55\r\n"
$GAGSV,2,1,05,02,76,334,43,03,27,182,41,07,28,311,39,08,54,244,43*6E\r\n"
$GAGSV,2,2,05,30,31,261,41,,,,,,,,,,,,*5C\r\n"
$GNVTG,340.71,T,,M,0.01,N,0.01,K,D*27\r\n"
$GNGST,165055.00,1.504,,,,0.205,0.178,0.376*6E\r\n"
$GNZDA,165055.00,02,02,2024,00,00*7E\r\n"
$GNRMC,165056.00,A,4220.2946417,N,07105.1903168,W,0.01,340.71,020224,,,D*58\r\n"
$GNGGA,165056.00,4220.2946417,N,07105.1903168,W,5,18,0.8,23.439,M,-28.725,M,1.0,0061*5C\r\
  \n"
$GPGSA,A,3,04,07,08,09,16,26,31,,,,,,2.2,0.8,2.0*3B\r\n"
$GLGSA,A,3,65,72,73,74,75,,,,,,,,2.2,0.8,2.0*27\r\n"
$GAGSA,A,3,02,03,07,08,30,,,,,,,,2.2,0.8,2.0*24\r\n"
$GBGSA,A,3,,,,,,,,,,,,,2.2,0.8,2.0*2A\r\n"
$GPGSV,2,1,07,04,47,211,44,07,23,304,41,08,43,191,46,09,47,276,46*73\r\n"
$GPGSV,2,2,07,16,56,049,43,26,29,068,40,31,16,117,39,,,,*4D\r\n"
$GLGSV,2,1,05,65,32,300,41,72,31,232,39,73,24,075,43,74,57,030,39*66\r\n"
$GLGSV,2,2,05,75,37,300,44,,,,,,,,,,,,*55\r\n"
$GAGSV,2,1,05,02,76,334,43,03,27,182,41,07,28,311,39,08,54,244,43*6E\r\n"
$GAGSV,2,2,05,30,31,261,41,,,,,,,,,,,,*5C\r\n"
$GNVTG,340.71,T,,M,0.01,N,0.01,K,D*27\r\n"
$GNGST,165056.00,1.507,,,,0.202,0.177,0.368*69\r\n"
$GNZDA,165056.00,02,02,2024,00,00*7D\r\n"
$GNRMC,165057.00,A,4220.2946354,N,07105.1903223,W,0.01,340.71,020224,,,D*55\r\n"
$GNGGA,165057.00,4220.2946354,N,07105.1903223,W,5,20,0.8,23.435,M,-28.725,M,1.0,0061*56\r\
  \n"
$GPGSA,A,3,04,07,08,09,16,26,31,,,,,,2.1,0.8,1.9*32\r\n"
$GLGSA,A,3,65,72,73,74,75,83,84,,,,,,2.1,0.8,1.9*29\r\n"
$GAGSA,A,3,02,03,07,08,30,,,,,,,,2.1,0.8,1.9*2D\r\n"
$GBGSA,A,3,,,,,,,,,,,,,2.1,0.8,1.9*23\r\n"
$GPGSV,2,1,07,04,47,211,44,07,23,304,41,08,43,191,46,09,47,276,46*73\r\n"
$GPGSV,2,2,07,16,56,049,43,26,29,068,40,31,16,117,39,,,,*4D\r\n"
$GLGSV,2,1,07,65,32,300,42,72,31,232,41,73,24,075,45,74,57,030,41*61\r\n"
$GLGSV,2,2,07,75,37,300,46,83,23,035,36,84,38,109,36,,,,*56\r\n"
$GAGSV,2,1,05,02,76,334,43,03,27,182,41,07,28,311,39,08,54,244,42*6F\r\n"
$GAGSV,2,2,05,30,31,261,41,,,,,,,,,,,,*5C\r\n"
$GNVTG,340.71,T,,M,0.01,N,0.01,K,D*27\r\n"
$GNGST,165057.00,1.440,,,,0.199,0.175,0.358*6A\r\n"
$GNZDA,165057.00,02,02,2024,00,00*7C\r\n"
$GNRMC,165058.00,A,4220.2946236,N,07105.1903272,W,0.01,340.71,020224,,,D*5B\r\n"
$GNGGA,165058.00,4220.2946236,N,07105.1903272,W,5,20,0.8,23.424,M,-28.725,M,1.0,0061*58\r\
  \n"
$GPGSA,A,3,04,07,08,09,16,26,31,,,,,,2.1,0.8,1.9*32\r\n"
$GLGSA,A,3,65,72,73,74,75,83,84,,,,,,2.1,0.8,1.9*29\r\n"
$GAGSA,A,3,02,03,07,08,30,,,,,,,,2.1,0.8,1.9*2D\r\n"
$GBGSA,A,3,,,,,,,,,,,,,2.1,0.8,1.9*23\r\n"
$GPGSV,2,1,07,04,47,211,44,07,23,304,41,08,43,191,46,09,47,276,46*73\r\n"
$GPGSV,2,2,07,16,56,049,43,26,29,068,40,31,16,117,39,,,,*4D\r\n"
$GLGSV,2,1,07,65,32,300,42,72,31,232,41,73,24,075,45,74,57,030,40*60\r\n"
$GLGSV,2,2,07,75,37,300,46,83,23,035,36,84,38,109,35,,,,*55\r\n"
$GAGSV,2,1,05,02,76,335,43,03,27,182,41,07,28,311,39,08,54,244,43*6F\r\n"
$GAGSV,2,2,05,30,31,261,41,,,,,,,,,,,,*5C\r\n"
$GNVTG,340.71,T,,M,0.01,N,0.01,K,D*27\r\n"
$GNGST,165058.00,1.499,,,,0.196,0.173,0.349*68\r\n"
$GNZDA,165058.00,02,02,2024,00,00*73\r\n"
$GNRMC,165059.00,A,4220.2946151,N,07105.1903356,W,0.01,340.71,020224,,,D*5F\r\n"
$GNGGA,165059.00,4220.2946151,N,07105.1903356,W,5,20,0.8,23.382,M,-28.725,M,2.0,0061*54\r\
  \n"
$GPGSA,A,3,04,07,08,09,16,26,31,,,,,,2.1,0.8,1.9*32\r\n"
$GLGSA,A,3,65,72,73,74,75,83,84,,,,,,2.1,0.8,1.9*29\r\n"
$GAGSA,A,3,02,03,07,08,30,,,,,,,,2.1,0.8,1.9*2D\r\n"
$GBGSA,A,3,,,,,,,,,,,,,2.1,0.8,1.9*23\r\n"
$GPGSV,2,1,07,04,47,211,44,07,23,304,41,08,43,191,46,09,47,276,46*73\r\n"
$GPGSV,2,2,07,16,56,049,43,26,29,068,40,31,16,117,39,,,,*4D\r\n"
$GLGSV,2,1,07,65,32,300,42,72,31,232,41,73,24,075,45,74,57,030,40*60\r\n"
$GLGSV,2,2,07,75,37,300,45,83,23,035,36,84,38,109,35,,,,*56\r\n"
$GAGSV,2,1,05,02,76,335,43,03,27,182,41,07,28,311,39,08,54,244,43*6F\r\n"
$GAGSV,2,2,05,30,31,261,41,,,,,,,,,,,,*5C\r\n"
$GNVTG,340.71,T,,M,0.01,N,0.01,K,D*27\r\n"
$GNGST,165059.00,1.542,,,,0.193,0.171,0.341*61\r\n"
$GNZDA,165059.00,02,02,2024,00,00*72\r\n"
$GNRMC,165100.00,A,4220.2946055,N,07105.1903424,W,0.01,340.71,020224,,,D*55\r\n"
$GNGGA,165100.00,4220.2946055,N,07105.1903424,W,5,20,0.8,23.389,M,-28.725,M,1.0,0061*56\r\
  \n"
$GPGSA,A,3,04,07,08,09,16,26,31,,,,,,2.1,0.8,1.9*32\r\n"
$GLGSA,A,3,65,72,73,74,75,83,84,,,,,,2.1,0.8,1.9*29\r\n"
$GAGSA,A,3,02,03,07,08,30,,,,,,,,2.1,0.8,1.9*2D\r\n"
$GBGSA,A,3,,,,,,,,,,,,,2.1,0.8,1.9*23\r\n"
$GPGSV,2,1,07,04,47,211,44,07,23,304,42,08,43,191,46,09,47,276,46*70\r\n"
$GPGSV,2,2,07,16,56,049,43,26,29,068,40,31,16,117,39,,,,*4D\r\n"
$GLGSV,2,1,07,65,32,300,42,72,31,232,41,73,24,075,45,74,57,030,40*60\r\n"
$GLGSV,2,2,07,75,37,300,45,83,23,035,36,84,38,109,35,,,,*56\r\n"
$GAGSV,2,1,05,02,76,335,43,03,27,182,41,07,28,311,39,08,54,244,43*6F\r\n"
$GAGSV,2,2,05,30,31,261,41,,,,,,,,,,,,*5C\r\n"
$GNVTG,340.71,T,,M,0.01,N,0.01,K,D*27\r\n"
$GNGST,165100.00,1.770,,,,0.191,0.170,0.333*69\r\n"
$GNZDA,165100.00,02,02,2024,00,00*7F\r\n"
$GNRMC,165101.00,A,4220.2945992,N,07105.1903489,W,0.01,340.71,020224,,,D*52\r\n"
$GNGGA,165101.00,4220.2945992,N,07105.1903489,W,5,20,0.8,23.369,M,-28.725,M,2.0,0061*5C\r\
  \n"
$GPGSA,A,3,04,07,08,09,16,26,31,,,,,,2.1,0.8,1.9*32\r\n"
$GLGSA,A,3,65,72,73,74,75,83,84,,,,,,2.1,0.8,1.9*29\r\n"
$GAGSA,A,3,02,03,07,08,30,,,,,,,,2.1,0.8,1.9*2D\r\n"
$GBGSA,A,3,,,,,,,,,,,,,2.1,0.8,1.9*23\r\n"
$GPGSV,2,1,07,04,47,211,44,07,23,304,42,08,43,191,46,09,47,276,46*70\r\n"
$GPGSV,2,2,07,16,56,049,43,26,29,068,40,31,16,117,38,,,,*4C\r\n"
$GLGSV,2,1,07,65,32,300,42,72,31,232,41,73,24,075,44,74,57,030,40*61\r\n"
$GLGSV,2,2,07,75,37,300,45,83,23,035,36,84,38,109,35,,,,*56\r\n"
$GAGSV,2,1,05,02,76,335,43,03,27,182,40,07,28,311,39,08,54,244,42*6F\r\n"
$GAGSV,2,2,05,30,31,261,40,,,,,,,,,,,,*5D\r\n"
$GNVTG,340.71,T,,M,0.01,N,0.01,K,D*27\r\n"
$GNGST,165101.00,1.844,,,,0.188,0.168,0.326*65\r\n"
$GNZDA,165101.00,02,02,2024,00,00*7E\r\n"
$GNRMC,165102.00,A,4220.2945881,N,07105.1903576,W,0.01,340.71,020224,,,D*53\r\n"
$GNGGA,165102.00,4220.2945881,N,07105.1903576,W,5,19,0.8,23.380,M,-28.725,M,1.0,0061*53\r\
  \n"
$GPGSA,A,3,04,07,08,09,16,26,31,,,,,,2.1,0.8,2.0*38\r\n"
$GLGSA,A,3,65,72,73,74,75,83,,,,,,,2.1,0.8,2.0*2F\r\n"
$GAGSA,A,3,02,03,07,08,30,,,,,,,,2.1,0.8,2.0*27\r\n"
$GBGSA,A,3,,,,,,,,,,,,,2.1,0.8,2.0*29\r\n"
$GPGSV,2,1,07,04,47,211,44,07,23,304,41,08,43,191,46,09,47,276,46*73\r\n"
$GPGSV,2,2,07,16,56,049,43,26,29,068,40,31,16,117,37,,,,*43\r\n"
$GLGSV,2,1,06,65,32,300,42,72,31,232,41,73,24,075,44,74,57,030,39*6E\r\n"
$GLGSV,2,2,06,75,37,300,46,83,23,035,36,,,,,,,,*6D\r\n"
$GAGSV,2,1,05,02,76,335,43,03,27,182,40,07,28,311,39,08,54,244,42*6F\r\n"
$GAGSV,2,2,05,30,31,261,41,,,,,,,,,,,,*5C\r\n"
$GNVTG,340.71,T,,M,0.01,N,0.01,K,D*27\r\n"
$GNGST,165102.00,1.992,,,,0.186,0.167,0.319*61\r\n"
$GNZDA,165102.00,02,02,2024,00,00*7D\r\n"
$GNRMC,165103.00,A,4220.2945763,N,07105.1903685,W,0.01,340.71,020224,,,D*5E\r\n"
$GNGGA,165103.00,4220.2945763,N,07105.1903685,W,5,19,0.8,23.383,M,-28.725,M,1.0,0061*5D\r\
  \n"
$GPGSA,A,3,04,07,08,09,16,26,31,,,,,,2.1,0.8,2.0*38\r\n"
$GLGSA,A,3,65,72,73,74,75,83,,,,,,,2.1,0.8,2.0*2F\r\n"
$GAGSA,A,3,02,03,07,08,30,,,,,,,,2.1,0.8,2.0*27\r\n"
$GBGSA,A,3,,,,,,,,,,,,,2.1,0.8,2.0*29\r\n"
$GPGSV,2,1,07,04,47,211,44,07,23,304,41,08,43,191,46,09,47,276,46*73\r\n"
$GPGSV,2,2,07,16,56,049,43,26,29,068,40,31,16,117,37,,,,*43\r\n"
$GLGSV,2,1,06,65,32,300,42,72,31,232,41,73,24,075,44,74,57,030,40*60\r\n"
$GLGSV,2,2,06,75,37,300,45,83,23,035,35,,,,,,,,*6D\r\n"
$GAGSV,2,1,05,02,76,335,43,03,27,182,41,07,28,311,39,08,54,244,42*6E\r\n"
$GAGSV,2,2,05,30,31,261,41,,,,,,,,,,,,*5C\r\n"
$GNVTG,340.71,T,,M,0.01,N,0.01,K,D*27\r\n"
$GNGST,165103.00,1.831,,,,0.183,0.165,0.312*64\r\n"
$GNZDA,165103.00,02,02,2024,00,00*7C\r\n"
$GNRMC,165104.00,A,4220.2945678,N,07105.1903742,W,0.01,340.71,020224,,,D*58\r\n"
$GNGGA,165104.00,4220.2945678,N,07105.1903742,W,5,19,0.8,23.352,M,-28.725,M,2.0,0061*54\r\
  \n"
$GPGSA,A,3,04,07,08,09,16,26,31,,,,,,2.1,0.8,2.0*38\r\n"
$GLGSA,A,3,65,72,73,74,75,83,,,,,,,2.1,0.8,2.0*2F\r\n"
$GAGSA,A,3,02,03,07,08,30,,,,,,,,2.1,0.8,2.0*27\r\n"
$GBGSA,A,3,,,,,,,,,,,,,2.1,0.8,2.0*29\r\n"
$GPGSV,2,1,07,04,47,211,43,07,23,304,41,08,43,191,47,09,47,276,46*75\r\n"
$GPGSV,2,2,07,16,56,049,43,26,29,068,40,31,16,117,37,,,,*43\r\n"
$GLGSV,2,1,06,65,32,300,41,72,31,232,41,73,24,075,44,74,57,030,39*6D\r\n"
$GLGSV,2,2,06,75,37,300,45,83,23,035,35,,,,,,,,*6D\r\n"
$GAGSV,2,1,05,02,76,335,43,03,27,182,41,07,28,311,39,08,54,244,42*6E\r\n"
$GAGSV,2,2,05,30,31,261,41,,,,,,,,,,,,*5C\r\n"
$GNVTG,340.71,T,,M,0.01,N,0.01,K,D*27\r\n"
$GNGST,165104.00,1.732,,,,0.181,0.164,0.306*69\r\n"
$GNZDA,165104.00,02,02,2024,00,00*7B\r\n"
$GNRMC,165105.00,A,4220.2945635,N,07105.1903760,W,0.01,340.71,020224,,,D*50\r\n"
$GNGGA,165105.00,4220.2945635,N,07105.1903760,W,5,20,0.8,23.371,M,-28.725,M,1.0,0061*54\r\
  \n"
$GPGSA,A,3,04,07,08,09,16,26,31,,,,,,2.1,0.8,1.9*32\r\n"
$GLGSA,A,3,65,72,73,74,75,83,84,,,,,,2.1,0.8,1.9*29\r\n"
$GAGSA,A,3,02,03,07,08,30,,,,,,,,2.1,0.8,1.9*2D\r\n"
$GBGSA,A,3,,,,,,,,,,,,,2.1,0.8,1.9*23\r\n"
$GPGSV,2,1,07,04,47,211,44,07,23,304,41,08,43,191,46,09,47,276,46*73\r\n"
$GPGSV,2,2,07,16,56,049,43,26,29,068,40,31,16,117,37,,,,*43\r\n"
$GLGSV,2,1,07,65,32,300,41,72,31,232,41,73,24,075,44,74,57,030,40*62\r\n"
$GLGSV,2,2,07,75,37,300,45,83,23,035,35,84,38,109,35,,,,*55\r\n"
$GAGSV,2,1,05,02,76,335,43,03,27,182,41,07,28,311,39,08,54,244,42*6E\r\n"
$GAGSV,2,2,05,30,31,261,41,,,,,,,,,,,,*5C\r\n"
$GNVTG,340.71,T,,M,0.01,N,0.01,K,D*27\r\n"
$GNGST,165105.00,1.963,,,,0.179,0.162,0.299*64\r\n"
$GNZDA,165105.00,02,02,2024,00,00*7A\r\n"
$GNRMC,165106.00,A,4220.2945615,N,07105.1903814,W,0.01,340.71,020224,,,D*5D\r\n"
$GNGGA,165106.00,4220.2945615,N,07105.1903814,W,5,19,0.8,23.345,M,-28.725,M,2.0,0061*57\r\
  \n"
$GPGSA,A,3,04,07,08,09,16,26,31,,,,,,2.1,0.8,2.0*38\r\n"
$GLGSA,A,3,65,72,73,74,75,83,,,,,,,2.1,0.8,2.0*2F\r\n"
$GAGSA,A,3,02,03,07,08,30,,,,,,,,2.1,0.8,2.0*27\r\n"
$GBGSA,A,3,,,,,,,,,,,,,2.1,0.8,2.0*29\r\n"
$GPGSV,2,1,07,04,47,211,44,07,23,304,41,08,43,191,46,09,47,276,46*73\r\n"
$GPGSV,2,2,07,16,56,049,43,26,29,068,40,31,16,117,38,,,,*4C\r\n"
$GLGSV,2,1,06,65,32,300,41,72,31,232,41,73,24,075,44,74,57,030,39*6D\r\n"
$GLGSV,2,2,06,75,37,300,45,83,23,035,35,,,,,,,,*6D\r\n"
$GAGSV,2,1,05,02,76,335,43,03,27,182,41,07,28,311,39,08,54,244,42*6E\r\n"
$GAGSV,2,2,05,30,31,261,41,,,,,,,,,,,,*5C\r\n"
$GNVTG,340.71,T,,M,0.01,N,0.01,K,D*27\r\n"
$GNGST,165106.00,1.491,,,,0.177,0.161,0.293*60\r\n"
$GNZDA,165106.00,02,02,2024,00,00*79\r\n"
$GNRMC,165107.00,A,4220.2945515,N,07105.1903850,W,0.01,340.71,020224,,,D*5F\r\n"
$GNGGA,165107.00,4220.2945515,N,07105.1903850,W,5,19,0.8,23.370,M,-28.725,M,1.0,0061*50\r\
  \n"
$GPGSA,A,3,04,07,08,09,16,26,31,,,,,,2.1,0.8,2.0*38\r\n"
$GLGSA,A,3,65,72,73,74,75,83,,,,,,,2.1,0.8,2.0*2F\r\n"
$GAGSA,A,3,02,03,07,08,30,,,,,,,,2.1,0.8,2.0*27\r\n"
$GBGSA,A,3,,,,,,,,,,,,,2.1,0.8,2.0*29\r\n"
$GPGSV,2,1,07,04,47,211,44,07,23,304,41,08,43,191,46,09,47,276,46*73\r\n"
$GPGSV,2,2,07,16,56,049,43,26,29,068,40,31,16,117,40,,,,*43\r\n"
$GLGSV,2,1,06,65,32,300,41,72,31,232,41,73,24,075,43,74,57,030,39*6A\r\n"
$GLGSV,2,2,06,75,37,300,45,83,23,035,35,,,,,,,,*6D\r\n"
$GAGSV,2,1,05,02,76,335,43,03,27,182,42,07,28,311,39,08,54,244,42*6D\r\n"
$GAGSV,2,2,05,30,31,261,41,,,,,,,,,,,,*5C\r\n"
$GNVTG,340.71,T,,M,0.01,N,0.01,K,D*27\r\n"
$GNGST,165107.00,1.498,,,,0.175,0.160,0.287*6E\r\n"
$GNZDA,165107.00,02,02,2024,00,00*78\r\n"
$GNRMC,165108.00,A,4220.2945477,N,07105.1903842,W,0.01,340.71,020224,,,D*56\r\n"
$GNGGA,165108.00,4220.2945477,N,07105.1903842,W,5,18,0.8,23.370,M,-28.725,M,1.0,0061*58\r\
  \n"
$GPGSA,A,3,04,07,08,09,16,26,31,,,,,,2.2,0.8,2.0*3B\r\n"
$GLGSA,A,3,65,72,73,74,75,,,,,,,,2.2,0.8,2.0*27\r\n"
$GAGSA,A,3,02,03,07,08,30,,,,,,,,2.2,0.8,2.0*24\r\n"
$GBGSA,A,3,,,,,,,,,,,,,2.2,0.8,2.0*2A\r\n"
$GPGSV,2,1,07,04,47,211,44,07,23,304,41,08,43,191,46,09,47,276,45*70\r\n"
$GPGSV,2,2,07,16,56,049,43,26,29,068,39,31,16,117,40,,,,*4D\r\n"
$GLGSV,2,1,05,65,32,300,41,72,31,232,41,73,24,075,43,74,57,030,39*69\r\n"
$GLGSV,2,2,05,75,37,300,45,,,,,,,,,,,,*54\r\n"
$GAGSV,2,1,05,02,76,335,43,03,27,182,41,07,28,311,40,08,54,244,42*60\r\n"
$GAGSV,2,2,05,30,31,261,41,,,,,,,,,,,,*5C\r\n"
$GNVTG,340.71,T,,M,0.01,N,0.01,K,D*27\r\n"
$GNGST,165108.00,1.287,,,,0.173,0.159,0.282*60\r\n"
$GNZDA,165108.00,02,02,2024,00,00*77\r\n"
$GNRMC,165109.00,A,4220.2945417,N,07105.1903818,W,0.01,340.71,020224,,,D*5E\r\n"
$GNGGA,165109.00,4220.2945417,N,07105.1903818,W,5,19,0.8,23.397,M,-28.725,M,1.0,0061*58\r\
  \n"
$GPGSA,A,3,04,07,08,09,16,26,31,,,,,,2.1,0.8,2.0*38\r\n"
$GLGSA,A,3,65,72,73,74,75,83,,,,,,,2.1,0.8,2.0*2F\r\n"
$GAGSA,A,3,02,03,07,08,30,,,,,,,,2.1,0.8,2.0*27\r\n"
$GBGSA,A,3,,,,,,,,,,,,,2.1,0.8,2.0*29\r\n"
$GPGSV,2,1,07,04,47,211,44,07,23,304,41,08,43,191,46,09,47,276,45*70\r\n"
$GPGSV,2,2,07,16,56,049,43,26,29,068,39,31,16,117,39,,,,*43\r\n"
$GLGSV,2,1,06,65,32,300,41,72,31,232,42,73,24,075,43,74,57,030,39*69\r\n"
$GLGSV,2,2,06,75,37,300,45,83,23,035,35,,,,,,,,*6D\r\n"
$GAGSV,2,1,05,02,76,335,43,03,27,182,41,07,28,311,40,08,54,244,42*60\r\n"
$GAGSV,2,2,05,30,31,261,41,,,,,,,,,,,,*5C\r\n"
$GNVTG,340.71,T,,M,0.01,N,0.01,K,D*27\r\n"
$GNGST,165109.00,1.361,,,,0.171,0.157,0.276*6F\r\n"
$GNZDA,165109.00,02,02,2024,00,00*76\r\n"
$GNRMC,165110.00,A,4220.2945349,N,07105.1903810,W,0.01,340.71,020224,,,D*52\r\n"
$GNGGA,165110.00,4220.2945349,N,07105.1903810,W,5,19,0.8,23.393,M,-28.725,M,1.0,0061*50\r\
  \n"
$GPGSA,A,3,04,07,08,09,16,26,31,,,,,,2.1,0.8,2.0*38\r\n"
$GLGSA,A,3,65,72,73,74,75,83,,,,,,,2.1,0.8,2.0*2F\r\n"
$GAGSA,A,3,02,03,07,08,30,,,,,,,,2.1,0.8,2.0*27\r\n"
$GBGSA,A,3,,,,,,,,,,,,,2.1,0.8,2.0*29\r\n"
$GPGSV,2,1,07,04,47,211,44,07,23,304,42,08,43,191,46,09,47,276,45*73\r\n"
$GPGSV,2,2,07,16,56,049,43,26,29,068,40,31,16,117,39,,,,*4D\r\n"
$GLGSV,2,1,06,65,32,300,41,72,31,232,42,73,24,075,44,74,57,030,39*6E\r\n"
$GLGSV,2,2,06,75,37,300,45,83,23,035,35,,,,,,,,*6D\r\n"
$GAGSV,2,1,05,02,76,335,43,03,27,182,41,07,28,311,40,08,54,244,42*60\r\n"
$GAGSV,2,2,05,30,31,261,41,,,,,,,,,,,,*5C\r\n"
$GNVTG,340.71,T,,M,0.01,N,0.01,K,D*27\r\n"
$GNGST,165110.00,1.452,,,,0.169,0.156,0.271*6F\r\n"
$GNZDA,165110.00,02,02,2024,00,00*7E\r\n"
$GNRMC,165111.00,A,4220.2945240,N,07105.1903803,W,0.01,340.71,020224,,,D*59\r\n"
$GNGGA,165111.00,4220.2945240,N,07105.1903803,W,5,19,0.8,23.391,M,-28.725,M,1.0,0061*59\r\
  \n"
$GPGSA,A,3,04,07,08,09,16,26,31,,,,,,2.1,0.8,2.0*38\r\n"
$GLGSA,A,3,65,72,73,74,75,83,,,,,,,2.1,0.8,2.0*2F\r\n"
$GAGSA,A,3,02,03,07,08,30,,,,,,,,2.1,0.8,2.0*27\r\n"
$GBGSA,A,3,,,,,,,,,,,,,2.1,0.8,2.0*29\r\n"
$GPGSV,2,1,07,04,47,211,43,07,23,304,42,08,43,191,46,09,47,276,45*74\r\n"
$GPGSV,2,2,07,16,56,049,43,26,29,068,40,31,16,117,39,,,,*4D\r\n"
$GLGSV,2,1,06,65,32,300,41,72,31,232,42,73,24,075,44,74,57,030,39*6E\r\n"
$GLGSV,2,2,06,75,37,300,45,83,23,035,35,,,,,,,,*6D\r\n"
$GAGSV,2,1,05,02,76,335,43,03,27,182,41,07,28,311,39,08,54,244,42*6E\r\n"
$GAGSV,2,2,05,30,31,261,41,,,,,,,,,,,,*5C\r\n"
$GNVTG,340.71,T,,M,0.01,N,0.01,K,D*27\r\n"
$GNGST,165111.00,1.468,,,,0.167,0.155,0.265*6F\r\n"
$GNZDA,165111.00,02,02,2024,00,00*7F\r\n"
$GNRMC,165112.00,A,4220.2945184,N,07105.1903810,W,0.01,340.71,020224,,,D*53\r\n"
$GNGGA,165112.00,4220.2945184,N,07105.1903810,W,5,19,0.8,23.375,M,-28.725,M,1.0,0061*59\r\
  \n"
$GPGSA,A,3,04,07,08,09,16,26,31,,,,,,2.1,0.8,2.0*38\r\n"
$GLGSA,A,3,65,72,73,74,75,83,,,,,,,2.1,0.8,2.0*2F\r\n"
$GAGSA,A,3,02,03,07,08,30,,,,,,,,2.1,0.8,2.0*27\r\n"
$GBGSA,A,3,,,,,,,,,,,,,2.1,0.8,2.0*29\r\n"
$GPGSV,2,1,07,04,47,211,43,07,23,304,42,08,43,191,46,09,47,276,45*74\r\n"
$GPGSV,2,2,07,16,56,049,43,26,29,068,40,31,16,117,39,,,,*4D\r\n"
$GLGSV,2,1,06,65,32,300,41,72,31,232,42,73,24,075,44,74,57,030,39*6E\r\n"
$GLGSV,2,2,06,75,37,300,45,83,23,035,35,,,,,,,,*6D\r\n"
$GAGSV,2,1,05,02,76,335,43,03,27,182,42,07,28,310,40,08,54,244,42*62\r\n"
$GAGSV,2,2,05,30,31,261,41,,,,,,,,,,,,*5C\r\n"
$GNVTG,340.71,T,,M,0.01,N,0.01,K,D*27\r\n"
$GNGST,165112.00,1.625,,,,0.165,0.154,0.260*61\r\n"
$GNZDA,165112.00,02,02,2024,00,00*7C\r\n"
$GNRMC,165113.00,A,4220.2945154,N,07105.1903816,W,0.01,340.71,020224,,,D*59\r\n"
$GNGGA,165113.00,4220.2945154,N,07105.1903816,W,5,18,0.8,23.340,M,-28.725,M,1.0,0061*54\r\
  \n"
$GPGSA,A,3,04,07,08,09,16,26,31,,,,,,2.2,0.8,2.0*3B\r\n"
$GLGSA,A,3,65,72,73,74,75,,,,,,,,2.2,0.8,2.0*27\r\n"
$GAGSA,A,3,02,03,07,08,30,,,,,,,,2.2,0.8,2.0*24\r\n"
$GBGSA,A,3,,,,,,,,,,,,,2.2,0.8,2.0*2A\r\n"
$GPGSV,2,1,07,04,47,211,44,07,23,304,42,08,43,191,46,09,47,276,45*73\r\n"
$GPGSV,2,2,07,16,56,049,42,26,29,068,40,31,16,117,40,,,,*42\r\n"
$GLGSV,2,1,05,65,32,300,41,72,31,232,42,73,24,075,44,74,57,030,39*6D\r\n"
$GLGSV,2,2,05,75,37,300,45,,,,,,,,,,,,*54\r\n"
$GAGSV,2,1,05,02,76,335,43,03,27,182,42,07,28,310,39,08,54,244,42*6C\r\n"
$GAGSV,2,2,05,30,31,261,41,,,,,,,,,,,,*5C\r\n"
$GNVTG,340.71,T,,M,0.01,N,0.01,K,D*27\r\n"
$GNGST,165113.00,1.460,,,,0.163,0.153,0.256*67\r\n"
$GNZDA,165113.00,02,02,2024,00,00*7D\r\n"
$GNRMC,165114.00,A,4220.2945116,N,07105.1903849,W,0.01,340.71,020224,,,D*52\r\n"
$GNGGA,165114.00,4220.2945116,N,07105.1903849,W,5,18,0.8,23.280,M,-28.725,M,2.0,0061*51\r\
  \n"
$GPGSA,A,3,04,07,08,09,16,26,31,,,,,,2.2,0.8,2.0*3B\r\n"
$GLGSA,A,3,65,72,73,74,75,,,,,,,,2.2,0.8,2.0*27\r\n"
$GAGSA,A,3,02,03,07,08,30,,,,,,,,2.2,0.8,2.0*24\r\n"
$GBGSA,A,3,,,,,,,,,,,,,2.2,0.8,2.0*2A\r\n"
$GPGSV,2,1,07,04,47,211,44,07,23,304,42,08,43,191,46,09,47,276,45*73\r\n"
$GPGSV,2,2,07,16,56,049,42,26,29,068,40,31,16,117,39,,,,*4C\r\n"
$GLGSV,2,1,05,65,32,300,41,72,31,232,42,73,24,075,44,74,57,030,39*6D\r\n"
$GLGSV,2,2,05,75,37,300,45,,,,,,,,,,,,*54\r\n"
$GAGSV,2,1,05,02,76,335,43,03,27,182,41,07,28,310,39,08,54,244,42*6F\r\n"
$GAGSV,2,2,05,30,31,261,41,,,,,,,,,,,,*5C\r\n"
$GNVTG,340.71,T,,M,0.01,N,0.01,K,D*27\r\n"
$GNGST,165114.00,1.476,,,,0.162,0.152,0.251*60\r\n"
$GNZDA,165114.00,02,02,2024,00,00*7A\r\n"
$GNRMC,165115.00,A,4220.2945074,N,07105.1903872,W,0.01,340.71,020224,,,D*5E\r\n"
$GNGGA,165115.00,4220.2945074,N,07105.1903872,W,5,18,0.8,23.249,M,-28.725,M,1.0,0061*5B\r\
  \n"
$GPGSA,A,3,04,07,08,09,16,26,31,,,,,,2.2,0.8,2.0*3B\r\n"
$GLGSA,A,3,65,72,73,74,75,,,,,,,,2.2,0.8,2.0*27\r\n"
$GAGSA,A,3,02,03,07,08,30,,,,,,,,2.2,0.8,2.0*24\r\n"
$GBGSA,A,3,,,,,,,,,,,,,2.2,0.8,2.0*2A\r\n"
$GPGSV,2,1,07,04,47,211,44,07,23,304,42,08,43,191,46,09,47,276,45*73\r\n"
$GPGSV,2,2,07,16,56,049,42,26,29,068,40,31,16,117,39,,,,*4C\r\n"
$GLGSV,2,1,05,65,32,300,41,72,31,232,41,73,24,075,44,74,57,030,39*6E\r\n"
$GLGSV,2,2,05,75,37,300,45,,,,,,,,,,,,*54\r\n"
$GAGSV,2,1,05,02,76,335,43,03,27,182,41,07,28,310,39,08,54,244,42*6F\r\n"
$GAGSV,2,2,05,30,31,261,41,,,,,,,,,,,,*5C\r\n"
$GNVTG,340.71,T,,M,0.01,N,0.01,K,D*27\r\n"
$GNGST,165115.00,1.564,,,,0.160,0.151,0.247*65\r\n"
$GNZDA,165115.00,02,02,2024,00,00*7B\r\n"
$GNRMC,165116.00,A,4220.2945049,N,07105.1903879,W,0.01,340.71,020224,,,D*58\r\n"
$GNGGA,165116.00,4220.2945049,N,07105.1903879,W,5,18,0.8,23.227,M,-28.725,M,1.0,0061*55\r\
  \n"
$GPGSA,A,3,04,07,08,09,16,26,31,,,,,,2.2,0.8,2.0*3B\r\n"
$GLGSA,A,3,65,72,73,74,75,,,,,,,,2.2,0.8,2.0*27\r\n"
$GAGSA,A,3,02,03,07,08,30,,,,,,,,2.2,0.8,2.0*24\r\n"
$GBGSA,A,3,,,,,,,,,,,,,2.2,0.8,2.0*2A\r\n"
$GPGSV,2,1,07,04,47,211,44,07,23,304,42,08,43,191,46,09,47,276,45*73\r\n"
$GPGSV,2,2,07,16,56,049,42,26,29,068,40,31,16,117,39,,,,*4C\r\n"
$GLGSV,2,1,05,65,32,300,41,72,31,232,41,73,24,075,44,74,57,030,38*6F\r\n"
$GLGSV,2,2,05,75,37,300,45,,,,,,,,,,,,*54\r\n"
$GAGSV,2,1,05,02,76,335,43,03,27,182,41,07,28,310,40,08,54,244,42*61\r\n"
$GAGSV,2,2,05,30,31,261,41,,,,,,,,,,,,*5C\r\n"
$GNVTG,340.71,T,,M,0.01,N,0.01,K,D*27\r\n"
$GNGST,165116.00,1.729,,,,0.159,0.150,0.243*62\r\n"
$GNZDA,165116.00,02,02,2024,00,00*78\r\n"
$GNRMC,165117.00,A,4220.2945015,N,07105.1903853,W,0.01,340.71,020224,,,D*58\r\n"
$GNGGA,165117.00,4220.2945015,N,07105.1903853,W,5,18,0.8,23.229,M,-28.725,M,1.0,0061*5B\r\
  \n"
$GPGSA,A,3,04,07,08,09,16,26,31,,,,,,2.2,0.8,2.0*3B\r\n"
$GLGSA,A,3,65,72,73,74,75,,,,,,,,2.2,0.8,2.0*27\r\n"
$GAGSA,A,3,02,03,07,08,30,,,,,,,,2.2,0.8,2.0*24\r\n"
$GBGSA,A,3,,,,,,,,,,,,,2.2,0.8,2.0*2A\r\n"
$GPGSV,2,1,07,04,47,211,44,07,23,304,42,08,43,191,46,09,47,276,45*73\r\n"
$GPGSV,2,2,07,16,56,049,43,26,29,068,40,31,16,117,40,,,,*43\r\n"
$GLGSV,2,1,05,65,32,300,41,72,31,232,41,73,24,075,44,74,57,030,38*6F\r\n"
$GLGSV,2,2,05,75,37,300,45,,,,,,,,,,,,*54\r\n"
$GAGSV,2,1,05,02,76,335,43,03,27,182,41,07,28,310,40,08,54,244,43*60\r\n"
$GAGSV,2,2,05,30,31,261,41,,,,,,,,,,,,*5C\r\n"
$GNVTG,340.71,T,,M,0.01,N,0.01,K,D*27\r\n"
$GNGST,165117.00,1.747,,,,0.157,0.149,0.238*61\r\n"
$GNZDA,165117.00,02,02,2024,00,00*79\r\n"
$GNRMC,165118.00,A,4220.2944994,N,07105.1903851,W,0.01,340.71,020224,,,D*54\r\n"
$GNGGA,165118.00,4220.2944994,N,07105.1903851,W,5,18,0.8,23.225,M,-28.725,M,1.0,0061*5B\r\
  \n"
$GPGSA,A,3,04,07,08,09,16,26,31,,,,,,2.2,0.8,2.0*3B\r\n"
$GLGSA,A,3,65,72,73,74,75,,,,,,,,2.2,0.8,2.0*27\r\n"
$GAGSA,A,3,02,03,07,08,30,,,,,,,,2.2,0.8,2.0*24\r\n"
$GBGSA,A,3,,,,,,,,,,,,,2.2,0.8,2.0*2A\r\n"
$GPGSV,2,1,07,04,47,211,44,07,23,304,42,08,43,191,46,09,47,276,45*73\r\n"
$GPGSV,2,2,07,16,56,049,43,26,29,068,40,31,16,117,39,,,,*4D\r\n"
$GLGSV,2,1,05,65,32,300,41,72,31,232,41,73,24,075,44,74,57,030,38*6F\r\n"
$GLGSV,2,2,05,75,37,300,45,,,,,,,,,,,,*54\r\n"
$GAGSV,2,1,05,02,76,335,43,03,26,182,41,07,28,310,40,08,54,244,43*61\r\n"
$GAGSV,2,2,05,30,31,261,41,,,,,,,,,,,,*5C\r\n"
$GNVTG,340.71,T,,M,0.01,N,0.01,K,D*27\r\n"
$GNGST,165118.00,1.812,,,,0.156,0.148,0.234*6D\r\n"
$GNZDA,165118.00,02,02,2024,00,00*76\r\n"
$GNRMC,165119.00,A,4220.2944940,N,07105.1903858,W,0.01,340.71,020224,,,D*55\r\n"
$GNGGA,165119.00,4220.2944940,N,07105.1903858,W,5,18,0.8,23.230,M,-28.725,M,1.0,0061*5E\r\
  \n"
$GPGSA,A,3,04,07,08,09,16,26,31,,,,,,2.2,0.8,2.0*3B\r\n"
$GLGSA,A,3,65,72,73,74,75,,,,,,,,2.2,0.8,2.0*27\r\n"
$GAGSA,A,3,02,03,07,08,30,,,,,,,,2.2,0.8,2.0*24\r\n"
$GBGSA,A,3,,,,,,,,,,,,,2.2,0.8,2.0*2A\r\n"
$GPGSV,2,1,07,04,47,211,44,07,23,304,42,08,43,191,46,09,47,276,45*73\r\n"
$GPGSV,2,2,07,16,56,049,43,26,29,068,40,31,16,117,39,,,,*4D\r\n"
$GLGSV,2,1,05,65,32,300,41,72,31,232,41,73,24,075,44,74,57,030,39*6E\r\n"
$GLGSV,2,2,05,75,37,300,45,,,,,,,,,,,,*54\r\n"
$GAGSV,2,1,05,02,76,335,43,03,26,182,41,07,28,310,40,08,54,244,43*61\r\n"
$GAGSV,2,2,05,30,31,261,41,,,,,,,,,,,,*5C\r\n"
$GNVTG,340.71,T,,M,0.01,N,0.01,K,D*27\r\n"
$GNGST,165119.00,1.760,,,,0.154,0.147,0.230*6F\r\n"
$GNZDA,165119.00,02,02,2024,00,00*77\r\n"
$GNRMC,165120.00,A,4220.2944887,N,07105.1903852,W,0.01,340.71,020224,,,D*5F\r\n"
$GNGGA,165120.00,4220.2944887,N,07105.1903852,W,5,18,0.8,23.230,M,-28.725,M,2.0,0061*57\r\
  \n"
$GPGSA,A,3,04,07,08,09,16,26,31,,,,,,2.2,0.8,2.0*3B\r\n"
$GLGSA,A,3,65,72,73,74,75,,,,,,,,2.2,0.8,2.0*27\r\n"
$GAGSA,A,3,02,03,07,08,30,,,,,,,,2.2,0.8,2.0*24\r\n"
$GBGSA,A,3,,,,,,,,,,,,,2.2,0.8,2.0*2A\r\n"
$GPGSV,2,1,07,04,47,211,44,07,23,304,42,08,43,191,46,09,47,276,45*73\r\n"
$GPGSV,2,2,07,16,56,049,43,26,29,068,40,31,16,117,39,,,,*4D\r\n"
$GLGSV,2,1,05,65,32,300,41,72,31,232,41,73,24,075,44,74,57,030,39*6E\r\n"
$GLGSV,2,2,05,75,37,300,45,,,,,,,,,,,,*54\r\n"
$GAGSV,2,1,05,02,76,335,43,03,26,182,41,07,28,310,40,08,54,244,42*60\r\n"
$GAGSV,2,2,05,30,31,261,41,,,,,,,,,,,,*5C\r\n"
$GNVTG,340.71,T,,M,0.01,N,0.01,K,D*27\r\n"
$GNGST,165120.00,1.641,,,,0.153,0.146,0.227*67\r\n"
$GNZDA,165120.00,02,02,2024,00,00*7D\r\n"
$GNRMC,165121.00,A,4220.2944856,N,07105.1903861,W,0.01,340.71,020224,,,D*52\r\n"
$GNGGA,165121.00,4220.2944856,N,07105.1903861,W,5,18,0.8,23.235,M,-28.725,M,1.0,0061*5C\r\
  \n"
$GPGSA,A,3,04,07,08,09,16,26,31,,,,,,2.2,0.8,2.0*3B\r\n"
$GLGSA,A,3,65,72,73,74,75,,,,,,,,2.2,0.8,2.0*27\r\n"
