$GNRMC,170209.00,A,4220.2868736,N,07105.1965849,W,0.19,308.45,020224,,,D*51\r\n"
$GNGGA,170209.00,4220.2868736,N,07105.1965849,W,5,10,1.3,31.043,M,-28.726,M,2.0,0061*5F\r\
  \n"
$GPGSA,A,3,07,08,16,,,,,,,,,,3.2,1.3,2.9*32\r\n"
$GLGSA,A,3,65,73,74,75,,,,,,,,,3.2,1.3,2.9*20\r\n"
$GAGSA,A,3,02,07,08,,,,,,,,,,3.2,1.3,2.9*26\r\n"
$GBGSA,A,3,,,,,,,,,,,,,3.2,1.3,2.9*28\r\n"
$GPGSV,1,1,03,07,27,305,38,08,49,191,40,16,51,053,43,,,,*4F\r\n"
$GLGSV,1,1,04,65,32,293,43,73,21,080,42,74,55,040,36,75,41,306,48*69\r\n"
$GAGSV,1,1,03,02,75,351,40,07,30,307,35,08,51,238,36,,,,*5E\r\n"
$GNVTG,308.45,T,,M,0.19,N,0.36,K,D*21\r\n"
$GNGST,170209.00,0.805,,,,0.882,0.790,2.681*66\r\n"
$GNZDA,170209.00,02,02,2024,00,00*71\r\n"
$GNRMC,170210.00,A,4220.2867678,N,07105.1961494,W,0.24,308.45,020224,,,D*5B\r\n"
$GNGGA,170210.00,4220.2867678,N,07105.1961494,W,5,15,1.0,29.536,M,-28.726,M,1.0,0061*50\r\
  \n"
$GPGSA,A,3,04,07,08,09,16,26,,,,,,,2.8,1.0,2.7*3D\r\n"
$GLGSA,A,3,65,73,74,75,84,,,,,,,,2.8,1.0,2.7*2A\r\n"
$GAGSA,A,3,02,07,08,30,,,,,,,,,2.8,1.0,2.7*23\r\n"
$GBGSA,A,3,,,,,,,,,,,,,2.8,1.0,2.7*2E\r\n"
$GPGSV,2,1,06,04,42,207,39,07,27,305,44,08,49,191,45,09,46,268,41*7A\r\n"
$GPGSV,2,2,06,16,51,053,48,26,25,071,41,,,,,,,,*76\r\n"
$GLGSV,2,1,05,65,32,293,43,73,21,080,41,74,55,040,37,75,41,306,48*69\r\n"
$GLGSV,2,2,05,84,42,102,36,,,,,,,,,,,,*5C\r\n"
$GAGSV,1,1,04,02,75,351,46,07,30,307,40,08,51,238,40,30,34,265,39*63\r\n"
$GNVTG,308.45,T,,M,0.24,N,0.45,K,D*2B\r\n"
$GNGST,170210.00,2.886,,,,0.807,0.699,2.469*66\r\n"
$GNZDA,170210.00,02,02,2024,00,00*79\r\n"
$GNRMC,170211.00,A,4220.2868634,N,07105.1958943,W,1.49,42.54,020224,,,D*67\r\n"
$GNGGA,170211.00,4220.2868634,N,07105.1958943,W,5,14,1.2,28.618,M,-28.726,M,2.0,0061*55\r\
  \n"
$GPGSA,A,3,07,08,09,16,26,,,,,,,,3.0,1.2,2.7*32\r\n"
$GLGSA,A,3,65,73,74,75,84,,,,,,,,3.0,1.2,2.7*21\r\n"
$GAGSA,A,3,02,07,08,30,,,,,,,,,3.0,1.2,2.7*28\r\n"
$GBGSA,A,3,,,,,,,,,,,,,3.0,1.2,2.7*25\r\n"
$GPGSV,2,1,05,07,27,305,43,08,49,191,38,09,46,268,46,16,51,053,45*7A\r\n"
$GPGSV,2,2,05,26,25,071,36,,,,,,,,,,,,*4C\r\n"
$GLGSV,2,1,05,65,32,293,43,73,21,080,39,74,55,040,37,75,41,306,46*68\r\n"
$GLGSV,2,2,05,84,42,102,36,,,,,,,,,,,,*5C\r\n"
$GAGSV,1,1,04,02,75,351,45,07,30,307,40,08,51,238,39,30,34,265,42*62\r\n"
$GNVTG,42.54,T,,M,1.49,N,2.75,K,D*1D\r\n"
$GNGST,170211.00,1.191,,,,0.765,0.635,2.335*68\r\n"
$GNZDA,170211.00,02,02,2024,00,00*78\r\n"
$GNRMC,170212.00,A,4220.2871348,N,07105.1955233,W,1.93,42.12,020224,,,D*66\r\n"
$GNGGA,170212.00,4220.2871348,N,07105.1955233,W,5,14,1.0,28.418,M,-28.726,M,1.0,0061*52\r\
  \n"
$GPGSA,A,3,04,07,08,09,16,26,,,,,,,2.8,1.0,2.7*3D\r\n"
$GLGSA,A,3,65,73,75,84,,,,,,,,,2.8,1.0,2.7*29\r\n"
$GAGSA,A,3,02,07,08,30,,,,,,,,,2.8,1.0,2.7*23\r\n"
$GBGSA,A,3,,,,,,,,,,,,,2.8,1.0,2.7*2E\r\n"
$GPGSV,2,1,06,04,42,207,37,07,27,305,43,08,49,191,43,09,46,268,41*75\r\n"
$GPGSV,2,2,06,16,51,053,44,26,25,071,38,,,,,,,,*74\r\n"
$GLGSV,1,1,04,65,32,293,43,73,21,080,35,75,41,306,46,84,42,102,36*69\r\n"
$GAGSV,1,1,04,02,75,351,46,07,30,307,41,08,51,238,40,30,34,265,40*6C\r\n"
$GNVTG,42.12,T,,M,1.93,N,3.58,K,D*16\r\n"
$GNGST,170212.00,1.126,,,,0.712,0.586,2.166*68\r\n"
$GNZDA,170212.00,02,02,2024,00,00*7B\r\n"
$GNRMC,170213.00,A,4220.2875482,N,07105.1951909,W,2.19,40.94,020224,,,D*69\r\n"
$GNGGA,170213.00,4220.2875482,N,07105.1951909,W,5,15,1.0,28.267,M,-28.726,M,1.0,0061*5F\r\
  \n"
$GPGSA,A,3,04,07,08,09,16,26,,,,,,,2.8,1.0,2.7*3D\r\n"
$GLGSA,A,3,65,73,74,75,84,,,,,,,,2.8,1.0,2.7*2A\r\n"
$GAGSA,A,3,02,07,08,30,,,,,,,,,2.8,1.0,2.7*23\r\n"
$GBGSA,A,3,,,,,,,,,,,,,2.8,1.0,2.7*2E\r\n"
$GPGSV,2,1,06,04,42,207,38,07,27,305,44,08,49,191,42,09,46,268,44*79\r\n"
$GPGSV,2,2,06,16,51,053,45,26,25,071,35,,,,,,,,*78\r\n"
$GLGSV,2,1,05,65,32,293,44,73,21,080,40,74,55,040,38,75,41,306,47*6F\r\n"
$GLGSV,2,2,05,84,42,102,36,,,,,,,,,,,,*5C\r\n"
$GAGSV,1,1,04,02,75,351,47,07,30,307,41,08,51,238,43,30,34,265,44*6A\r\n"
$GNVTG,40.94,T,,M,2.19,N,4.06,K,D*17\r\n"
$GNGST,170213.00,0.836,,,,1.775,1.301,2.254*6A\r\n"
$GNZDA,170213.00,02,02,2024,00,00*7A\r\n"
$GNRMC,170214.00,A,4220.2880273,N,07105.1946052,W,1.01,43.20,020224,,,D*6B\r\n"
$GNGGA,170214.00,4220.2880273,N,07105.1946052,W,5,15,1.0,27.920,M,-28.726,M,1.0,0061*5C\r\
  \n"
$GPGSA,A,3,04,07,08,09,16,26,,,,,,,2.8,1.0,2.7*3D\r\n"
$GLGSA,A,3,65,73,74,75,84,,,,,,,,2.8,1.0,2.7*2A\r\n"
$GAGSA,A,3,02,07,08,30,,,,,,,,,2.8,1.0,2.7*23\r\n"
$GBGSA,A,3,,,,,,,,,,,,,2.8,1.0,2.7*2E\r\n"
$GPGSV,2,1,06,04,42,207,38,07,27,305,44,08,49,191,41,09,46,268,47*79\r\n"
$GPGSV,2,2,06,16,51,053,45,26,25,071,38,,,,,,,,*75\r\n"
$GLGSV,2,1,05,65,32,293,42,73,21,080,39,74,55,040,36,75,41,306,45*6B\r\n"
$GLGSV,2,2,05,84,42,102,37,,,,,,,,,,,,*5D\r\n"
$GAGSV,1,1,04,02,75,351,47,07,30,307,41,08,51,238,43,30,34,265,42*6C\r\n"
$GNVTG,43.20,T,,M,1.01,N,1.87,K,D*1D\r\n"
$GNGST,170214.00,1.571,,,,1.245,0.949,2.031*62\r\n"
$GNZDA,170214.00,02,02,2024,00,00*7D\r\n"
$GNRMC,170215.00,A,4220.2882677,N,07105.1942924,W,1.56,39.30,020224,,,D*6A\r\n"
$GNGGA,170215.00,4220.2882677,N,07105.1942924,W,5,16,1.2,27.539,M,-28.726,M,2.0,0061*55\r\
  \n"
$GPGSA,A,3,04,07,08,09,16,26,,,,,,,4.8,1.2,4.6*3E\r\n"
$GLGSA,A,3,65,73,74,75,84,,,,,,,,4.8,1.2,4.6*29\r\n"
$GAGSA,A,3,02,03,07,08,30,,,,,,,,4.8,1.2,4.6*23\r\n"
$GBGSA,A,3,,,,,,,,,,,,,4.8,1.2,4.6*2D\r\n"
$GPGSV,2,1,06,04,42,207,38,07,27,305,42,08,49,191,42,09,46,268,46*7D\r\n"
$GPGSV,2,2,06,16,51,053,45,26,25,071,39,,,,,,,,*74\r\n"
$GLGSV,2,1,05,65,32,293,43,73,21,080,40,74,55,040,42,75,41,306,46*64\r\n"
$GLGSV,2,2,05,84,42,102,35,,,,,,,,,,,,*5F\r\n"
$GAGSV,2,1,05,02,75,351,46,03,22,182,38,07,30,307,40,08,51,238,41*6C\r\n"
$GAGSV,2,2,05,30,34,265,42,,,,,,,,,,,,*5E\r\n"
$GNVTG,39.30,T,,M,1.56,N,2.90,K,D*16\r\n"
$GNGST,170215.00,0.806,,,,1.055,0.835,1.989*6F\r\n"
$GNZDA,170215.00,02,02,2024,00,00*7C\r\n"
$GNRMC,170216.00,A,4220.2886862,N,07105.1938938,W,1.79,41.95,020224,,,D*6A\r\n"
$GNGGA,170216.00,4220.2886862,N,07105.1938938,W,5,14,1.1,27.839,M,-28.725,M,1.0,0061*54\r\
  \n"
$GPGSA,A,3,04,07,08,09,16,,,,,,,,3.0,1.1,2.8*3E\r\n"
$GLGSA,A,3,65,73,74,75,,,,,,,,,3.0,1.1,2.8*21\r\n"
$GAGSA,A,3,02,03,07,08,30,,,,,,,,3.0,1.1,2.8*27\r\n"
$GBGSA,A,3,,,,,,,,,,,,,3.0,1.1,2.8*29\r\n"
$GPGSV,2,1,05,04,42,207,39,07,27,305,42,08,49,191,40,09,46,268,45*7E\r\n"
$GPGSV,2,2,05,16,51,053,44,,,,,,,,,,,,*49\r\n"
$GLGSV,1,1,04,65,32,293,44,73,21,080,42,74,55,040,39,75,41,306,46*6F\r\n"
$GAGSV,2,1,05,02,75,351,47,03,22,182,38,07,30,307,40,08,51,238,42*6E\r\n"
$GAGSV,2,2,05,30,34,265,44,,,,,,,,,,,,*58\r\n"
$GNVTG,41.95,T,,M,1.79,N,3.31,K,D*11\r\n"
$GNGST,170216.00,0.830,,,,0.946,0.768,1.944*65\r\n"
$GNZDA,170216.00,02,02,2024,00,00*7F\r\n"
$GNRMC,170217.00,A,4220.2888742,N,07105.1934418,W,1.66,44.94,020224,,,D*61\r\n"
$GNGGA,170217.00,4220.2888742,N,07105.1934418,W,5,14,1.6,27.323,M,-28.725,M,2.0,0061*51\r\
  \n"
$GPGSA,A,3,04,07,08,09,16,,,,,,,,5.9,1.6,5.7*3E\r\n"
$GLGSA,A,3,65,73,74,75,,,,,,,,,5.9,1.6,5.7*21\r\n"
$GAGSA,A,3,02,03,07,08,30,,,,,,,,5.9,1.6,5.7*27\r\n"
$GBGSA,A,3,,,,,,,,,,,,,5.9,1.6,5.7*29\r\n"
$GPGSV,2,1,05,04,42,207,41,07,27,305,38,08,49,191,44,09,46,268,45*78\r\n"
$GPGSV,2,2,05,16,51,053,45,,,,,,,,,,,,*48\r\n"
$GLGSV,1,1,04,65,32,293,40,73,21,080,40,74,55,040,38,75,41,306,46*68\r\n"
$GAGSV,2,1,05,02,75,351,47,03,22,182,36,07,30,307,40,08,51,238,40*62\r\n"
$GAGSV,2,2,05,30,34,265,44,,,,,,,,,,,,*58\r\n"
$GNVTG,44.94,T,,M,1.66,N,3.08,K,D*11\r\n"
$GNGST,170217.00,0.507,,,,0.867,0.730,1.910*63\r\n"
$GNZDA,170217.00,02,02,2024,00,00*7E\r\n"
$GNRMC,170218.00,A,4220.2892284,N,07105.1929935,W,1.65,41.36,020224,,,D*6A\r\n"
$GNGGA,170218.00,4220.2892284,N,07105.1929935,W,5,16,1.0,26.909,M,-28.725,M,1.0,0061*50\r\
  \n"
$GPGSA,A,3,04,07,08,09,16,26,,,,,,,2.8,1.0,2.6*3C\r\n"
$GLGSA,A,3,65,73,74,75,83,84,,,,,,,2.8,1.0,2.6*20\r\n"
$GAGSA,A,3,02,07,08,30,,,,,,,,,2.8,1.0,2.6*22\r\n"
$GBGSA,A,3,,,,,,,,,,,,,2.8,1.0,2.6*2F\r\n"
$GPGSV,2,1,06,04,42,207,42,07,27,305,39,08,49,191,46,09,46,268,44*7A\r\n"
$GPGSV,2,2,06,16,51,053,47,26,25,071,41,,,,,,,,*79\r\n"
$GLGSV,2,1,06,65,32,293,42,73,21,080,45,74,55,040,38,75,41,306,46*6E\r\n"
$GLGSV,2,2,06,83,20,030,36,84,42,102,35,,,,,,,,*63\r\n"
$GAGSV,1,1,04,02,75,351,47,07,30,307,40,08,51,238,42,30,34,265,44*6A\r\n"
$GNVTG,41.36,T,,M,1.65,N,3.05,K,D*12\r\n"
$GNGST,170218.00,1.296,,,,0.797,0.652,1.832*66\r\n"
$GNZDA,170218.00,02,02,2024,00,00*71\r\n"
$GNRMC,170219.00,A,4220.2895080,N,07105.1926006,W,1.50,40.91,020224,,,D*66\r\n"
$GNGGA,170219.00,4220.2895080,N,07105.1926006,W,5,16,1.1,26.512,M,-28.725,M,2.0,0061*52\r\
  \n"
$GPGSA,A,3,04,07,08,09,16,26,,,,,,,3.4,1.1,3.2*35\r\n"
$GLGSA,A,3,65,73,74,75,83,84,,,,,,,3.4,1.1,3.2*29\r\n"
$GAGSA,A,3,02,07,08,30,,,,,,,,,3.4,1.1,3.2*2B\r\n"
$GBGSA,A,3,,,,,,,,,,,,,3.4,1.1,3.2*26\r\n"
$GPGSV,2,1,06,04,42,207,41,07,27,305,40,08,49,191,45,09,46,268,44*74\r\n"
$GPGSV,2,2,06,16,51,053,46,26,25,071,43,,,,,,,,*7A\r\n"
$GLGSV,2,1,06,65,32,293,42,73,21,080,42,74,55,040,38,75,41,306,47*68\r\n"
$GLGSV,2,2,06,83,20,030,35,84,42,102,36,,,,,,,,*63\r\n"
$GAGSV,1,1,04,02,75,351,46,07,30,307,40,08,51,238,42,30,34,265,41*6E\r\n"
$GNVTG,40.91,T,,M,1.50,N,2.77,K,D*1C\r\n"
$GNGST,170219.00,0.850,,,,0.741,0.603,1.774*64\r\n"
$GNZDA,170219.00,02,02,2024,00,00*70\r\n"
$GNRMC,170220.00,A,4220.2898829,N,07105.1922520,W,1.66,42.75,020224,,,D*62\r\n"
$GNGGA,170220.00,4220.2898829,N,07105.1922520,W,5,15,1.0,26.658,M,-28.725,M,1.0,0061*57\r\
  \n"
$GPGSA,A,3,04,07,08,09,16,26,,,,,,,2.8,1.0,2.6*3C\r\n"
$GLGSA,A,3,65,73,74,75,84,,,,,,,,2.8,1.0,2.6*2B\r\n"
$GAGSA,A,3,02,07,08,30,,,,,,,,,2.8,1.0,2.6*22\r\n"
$GBGSA,A,3,,,,,,,,,,,,,2.8,1.0,2.6*2F\r\n"
$GPGSV,2,1,06,04,42,207,40,07,27,305,40,08,49,191,45,09,46,268,45*74\r\n"
$GPGSV,2,2,06,16,51,053,42,26,25,071,40,,,,,,,,*7D\r\n"
$GLGSV,2,1,05,65,32,293,43,73,21,080,40,74,55,040,39,75,41,306,46*68\r\n"
$GLGSV,2,2,05,84,42,102,36,,,,,,,,,,,,*5C\r\n"
$GAGSV,1,1,04,02,75,351,47,07,30,307,39,08,51,238,41,30,34,265,42*61\r\n"
$GNVTG,42.75,T,,M,1.66,N,3.08,K,D*18\r\n"
$GNGST,170220.00,1.127,,,,0.695,0.560,1.707*6C\r\n"
$GNZDA,170220.00,02,02,2024,00,00*7A\r\n"
$GNRMC,170221.00,A,4220.2901986,N,07105.1918758,W,1.65,44.74,020224,,,D*66\r\n"
$GNGGA,170221.00,4220.2901986,N,07105.1918758,W,5,16,1.0,26.647,M,-28.725,M,2.0,0061*59\r\
  \n"
$GPGSA,A,3,04,07,08,09,16,26,,,,,,,2.8,1.0,2.6*3C\r\n"
$GLGSA,A,3,65,73,74,75,84,,,,,,,,2.8,1.0,2.6*2B\r\n"
$GAGSA,A,3,02,03,07,08,30,,,,,,,,2.8,1.0,2.6*21\r\n"
$GBGSA,A,3,,,,,,,,,,,,,2.8,1.0,2.6*2F\r\n"
$GPGSV,2,1,06,04,42,207,41,07,27,305,39,08,49,191,46,09,46,268,46*7B\r\n"
$GPGSV,2,2,06,16,51,053,47,26,25,071,42,,,,,,,,*7A\r\n"
$GLGSV,2,1,05,65,32,293,41,73,21,080,40,74,55,040,38,75,41,306,46*6B\r\n"
$GLGSV,2,2,05,84,42,102,35,,,,,,,,,,,,*5F\r\n"
$GAGSV,2,1,05,02,75,351,47,03,22,182,36,07,30,307,40,08,51,238,42*60\r\n"
$GAGSV,2,2,05,30,34,265,42,,,,,,,,,,,,*5E\r\n"
$GNVTG,44.74,T,,M,1.65,N,3.06,K,D*12\r\n"
$GNGST,170221.00,1.065,,,,0.656,0.526,1.645*60\r\n"
$GNZDA,170221.00,02,02,2024,00,00*7B\r\n"
$GNRMC,170222.00,A,4220.2905377,N,07105.1915093,W,1.67,39.88,020224,,,D*63\r\n"
$GNGGA,170222.00,4220.2905377,N,07105.1915093,W,5,16,1.0,26.470,M,-28.725,M,1.0,0061*52\r\
  \n"
$GPGSA,A,3,04,07,08,09,16,26,,,,,,,2.9,1.0,2.7*3C\r\n"
$GLGSA,A,3,65,73,74,75,83,,,,,,,,2.9,1.0,2.7*2C\r\n"
$GAGSA,A,3,02,03,07,08,30,,,,,,,,2.9,1.0,2.7*21\r\n"
$GBGSA,A,3,,,,,,,,,,,,,2.9,1.0,2.7*2F\r\n"
$GPGSV,2,1,06,04,42,207,42,07,27,305,43,08,49,191,46,09,46,268,44*77\r\n"
$GPGSV,2,2,06,16,51,053,46,26,25,071,41,,,,,,,,*78\r\n"
$GLGSV,2,1,05,65,32,293,44,73,21,080,43,74,55,040,39,75,41,306,48*62\r\n"
$GLGSV,2,2,05,83,20,030,35,,,,,,,,,,,,*5C\r\n"
$GAGSV,2,1,05,02,75,351,46,03,22,182,35,07,30,307,40,08,51,238,42*62\r\n"
$GAGSV,2,2,05,30,34,265,42,,,,,,,,,,,,*5E\r\n"
$GNVTG,39.88,T,,M,1.67,N,3.08,K,D*17\r\n"
$GNGST,170222.00,1.191,,,,0.624,0.502,1.584*64\r\n"
$GNZDA,170222.00,02,02,2024,00,00*78\r\n"
$GNRMC,170223.00,A,4220.2908791,N,07105.1911301,W,1.70,42.42,020224,,,D*63\r\n"
$GNGGA,170223.00,4220.2908791,N,07105.1911301,W,5,17,1.0,26.581,M,-28.725,M,1.0,0061*50\r\
  \n"
$GPGSA,A,3,04,07,08,09,16,26,,,,,,,2.8,1.0,2.6*3C\r\n"
$GLGSA,A,3,65,73,74,75,83,84,,,,,,,2.8,1.0,2.6*20\r\n"
$GAGSA,A,3,02,03,07,08,30,,,,,,,,2.8,1.0,2.6*21\r\n"
$GBGSA,A,3,,,,,,,,,,,,,2.8,1.0,2.6*2F\r\n"
$GPGSV,2,1,06,04,42,207,41,07,27,305,41,08,49,191,47,09,46,268,43*70\r\n"
$GPGSV,2,2,06,16,51,053,47,26,25,071,40,,,,,,,,*78\r\n"
$GLGSV,2,1,06,65,32,293,43,73,21,080,43,74,55,040,40,75,41,306,47*67\r\n"
$GLGSV,2,2,06,83,20,030,35,84,42,102,36,,,,,,,,*63\r\n"
$GAGSV,2,1,05,02,75,352,46,03,22,182,35,07,30,307,40,08,51,238,42*61\r\n"
$GAGSV,2,2,05,30,34,265,41,,,,,,,,,,,,*5D\r\n"
$GNVTG,42.42,T,,M,1.70,N,3.15,K,D*17\r\n"
$GNGST,170223.00,0.950,,,,0.594,0.476,1.522*67\r\n"
$GNZDA,170223.00,02,02,2024,00,00*79\r\n"
$GNRMC,170224.00,A,4220.2912277,N,07105.1906984,W,1.61,45.51,020224,,,D*66\r\n"
$GNGGA,170224.00,4220.2912277,N,07105.1906984,W,5,17,1.0,26.746,M,-28.725,M,2.0,0061*5A\r\
  \n"
$GPGSA,A,3,04,07,08,09,16,26,,,,,,,2.8,1.0,2.6*3C\r\n"
$GLGSA,A,3,65,73,74,75,83,84,,,,,,,2.8,1.0,2.6*20\r\n"
$GAGSA,A,3,02,03,07,08,30,,,,,,,,2.8,1.0,2.6*21\r\n"
$GBGSA,A,3,,,,,,,,,,,,,2.8,1.0,2.6*2F\r\n"
$GPGSV,2,1,06,04,42,207,39,07,27,305,42,08,49,191,48,09,46,268,43*73\r\n"
$GPGSV,2,2,06,16,51,053,47,26,25,071,41,,,,,,,,*79\r\n"
$GLGSV,2,1,06,65,32,293,47,73,21,080,45,74,55,040,41,75,41,306,49*6A\r\n"
$GLGSV,2,2,06,83,20,030,37,84,42,102,39,,,,,,,,*6E\r\n"
$GAGSV,2,1,05,02,75,352,47,03,22,182,35,07,30,307,41,08,51,238,41*62\r\n"
$GAGSV,2,2,05,30,34,265,40,,,,,,,,,,,,*5C\r\n"
$GNVTG,45.51,T,,M,1.61,N,2.98,K,D*16\r\n"
$GNGST,170224.00,1.159,,,,0.568,0.454,1.465*61\r\n"
$GNZDA,170224.00,02,02,2024,00,00*7E\r\n"
$GNRMC,170225.00,A,4220.2915847,N,07105.1902836,W,1.73,44.16,020224,,,D*64\r\n"
$GNGGA,170225.00,4220.2915847,N,07105.1902836,W,5,16,1.0,26.915,M,-28.725,M,1.0,0061*53\r\
  \n"
$GPGSA,A,3,04,07,08,09,16,26,,,,,,,2.8,1.0,2.6*3C\r\n"
$GLGSA,A,3,65,73,74,75,83,84,,,,,,,2.8,1.0,2.6*20\r\n"
$GAGSA,A,3,02,07,08,30,,,,,,,,,2.8,1.0,2.6*22\r\n"
$GBGSA,A,3,,,,,,,,,,,,,2.8,1.0,2.6*2F\r\n"
$GPGSV,2,1,06,04,42,207,41,07,27,305,42,08,49,191,46,09,46,268,45*74\r\n"
$GPGSV,2,2,06,16,51,053,47,26,25,071,40,,,,,,,,*78\r\n"
$GLGSV,2,1,06,65,32,293,45,73,21,080,44,74,55,040,40,75,41,306,48*69\r\n"
$GLGSV,2,2,06,83,20,030,37,84,42,102,38,,,,,,,,*6F\r\n"
$GAGSV,1,1,04,02,75,352,46,07,30,307,40,08,51,238,41,30,34,265,41*6E\r\n"
$GNVTG,44.16,T,,M,1.73,N,3.19,K,D*1F\r\n"
$GNGST,170225.00,1.094,,,,0.544,0.435,1.406*6C\r\n"
$GNZDA,170225.00,02,02,2024,00,00*7F\r\n"
$GNRMC,170226.00,A,4220.2918977,N,07105.1898581,W,1.67,43.82,020224,,,D*64\r\n"
$GNGGA,170226.00,4220.2918977,N,07105.1898581,W,5,16,1.0,26.586,M,-28.725,M,1.0,0061*5A\r\
  \n"
$GPGSA,A,3,04,07,08,09,16,26,,,,,,,2.8,1.0,2.6*3C\r\n"
$GLGSA,A,3,65,73,74,75,83,84,,,,,,,2.8,1.0,2.6*20\r\n"
$GAGSA,A,3,02,07,08,30,,,,,,,,,2.8,1.0,2.6*22\r\n"
$GBGSA,A,3,,,,,,,,,,,,,2.8,1.0,2.6*2F\r\n"
$GPGSV,2,1,06,04,42,207,41,07,27,305,41,08,49,191,48,09,46,268,42*7E\r\n"
$GPGSV,2,2,06,16,51,053,45,26,25,071,41,,,,,,,,*7B\r\n"
$GLGSV,2,1,06,65,32,293,46,73,21,080,45,74,55,040,42,75,41,306,50*60\r\n"
$GLGSV,2,2,06,83,20,030,36,84,42,102,38,,,,,,,,*6E\r\n"
$GAGSV,1,1,04,02,75,352,46,07,30,307,40,08,51,238,44,30,34,265,41*6B\r\n"
$GNVTG,43.82,T,,M,1.67,N,3.09,K,D*11\r\n"
$GNGST,170226.00,1.010,,,,0.522,0.418,1.349*60\r\n"
$GNZDA,170226.00,02,02,2024,00,00*7C\r\n"
$GNRMC,170227.00,A,4220.2921982,N,07105.1894673,W,1.71,41.34,020224,,,D*6F\r\n"
$GNGGA,170227.00,4220.2921982,N,07105.1894673,W,5,17,0.9,26.236,M,-28.725,M,2.0,0061*5F\r\
  \n"
$GPGSA,A,3,04,07,08,09,16,26,,,,,,,2.3,0.9,2.2*3B\r\n"
$GLGSA,A,3,65,72,73,74,75,83,84,,,,,,2.3,0.9,2.2*22\r\n"
$GAGSA,A,3,02,07,08,30,,,,,,,,,2.3,0.9,2.2*25\r\n"
$GBGSA,A,3,,,,,,,,,,,,,2.3,0.9,2.2*28\r\n"
$GPGSV,2,1,06,04,42,207,41,07,27,305,41,08,49,191,48,09,46,268,44*78\r\n"
$GPGSV,2,2,06,16,51,053,47,26,25,071,37,,,,,,,,*78\r\n"
$GLGSV,2,1,07,65,32,293,45,72,25,228,39,73,21,080,42,74,55,040,43*63\r\n"
$GLGSV,2,2,07,75,41,306,49,83,20,030,36,84,42,102,37,,,,*5F\r\n"
$GAGSV,1,1,04,02,75,352,45,07,30,307,40,08,51,238,43,30,34,265,42*6C\r\n"
$GNVTG,41.34,T,,M,1.71,N,3.17,K,D*16\r\n"
$GNGST,170227.00,1.484,,,,0.501,0.401,1.296*62\r\n"
$GNZDA,170227.00,02,02,2024,00,00*7D\r\n"
$GNRMC,170228.00,A,4220.2925857,N,07105.1890527,W,1.66,41.53,020224,,,D*6C\r\n"
$GNGGA,170228.00,4220.2925857,N,07105.1890527,W,5,16,0.9,26.450,M,-28.725,M,1.0,0061*5F\r\
  \n"
$GPGSA,A,3,04,07,08,09,16,26,,,,,,,2.3,0.9,2.2*3B\r\n"
$GLGSA,A,3,65,72,73,74,75,84,,,,,,,2.3,0.9,2.2*29\r\n"
$GAGSA,A,3,02,07,08,30,,,,,,,,,2.3,0.9,2.2*25\r\n"
$GBGSA,A,3,,,,,,,,,,,,,2.3,0.9,2.2*28\r\n"
$GPGSV,2,1,06,04,42,207,41,07,27,305,41,08,49,191,47,09,46,268,45*76\r\n"
$GPGSV,2,2,06,16,51,053,46,26,25,071,40,,,,,,,,*79\r\n"
$GLGSV,2,1,06,65,32,293,44,72,25,228,35,73,21,080,42,74,55,040,38*63\r\n"
$GLGSV,2,2,06,75,41,306,48,84,42,102,37,,,,,,,,*60\r\n"
$GAGSV,1,1,04,02,75,352,46,07,30,307,39,08,51,238,42,30,34,265,42*60\r\n"
$GNVTG,41.53,T,,M,1.66,N,3.08,K,D*1F\r\n"
$GNGST,170228.00,1.749,,,,0.482,0.388,1.243*6B\r\n"
$GNZDA,170228.00,02,02,2024,00,00*72\r\n"
$GNRMC,170229.00,A,4220.2929396,N,07105.1886065,W,1.73,41.57,020224,,,D*63\r\n"
$GNGGA,170229.00,4220.2929396,N,07105.1886065,W,5,17,0.9,26.143,M,-28.725,M,2.0,0061*55\r\
  \n"
$GPGSA,A,3,04,07,08,09,16,26,,,,,,,2.3,0.9,2.2*3B\r\n"
$GLGSA,A,3,65,72,73,74,75,83,84,,,,,,2.3,0.9,2.2*22\r\n"
$GAGSA,A,3,02,07,08,30,,,,,,,,,2.3,0.9,2.2*25\r\n"
$GBGSA,A,3,,,,,,,,,,,,,2.3,0.9,2.2*28\r\n"
$GPGSV,2,1,06,04,42,207,40,07,27,305,42,08,49,191,46,09,46,268,44*74\r\n"
$GPGSV,2,2,06,16,51,053,48,26,25,071,39,,,,,,,,*79\r\n"
$GLGSV,2,1,07,65,32,293,44,72,25,228,35,73,21,080,42,74,55,040,41*6C\r\n"
$GLGSV,2,2,07,75,41,306,48,83,20,030,35,84,42,102,35,,,,*5F\r\n"
$GAGSV,1,1,04,02,75,352,46,07,30,307,41,08,51,238,43,30,34,265,42*6E\r\n"
$GNVTG,41.57,T,,M,1.73,N,3.20,K,D*15\r\n"
$GNGST,170229.00,2.873,,,,0.465,0.375,1.195*6C\r\n"
$GNZDA,170229.00,02,02,2024,00,00*73\r\n"
$GNRMC,170230.00,A,4220.2932981,N,07105.1881855,W,1.67,40.23,020224,,,D*66\r\n"
$GNGGA,170230.00,4220.2932981,N,07105.1881855,W,5,17,0.9,26.026,M,-28.725,M,1.0,0061*56\r\
  \n"
$GPGSA,A,3,04,07,08,09,16,26,,,,,,,2.3,0.9,2.2*3B\r\n"
$GLGSA,A,3,65,72,73,74,75,83,84,,,,,,2.3,0.9,2.2*22\r\n"
$GAGSA,A,3,02,07,08,30,,,,,,,,,2.3,0.9,2.2*25\r\n"
$GBGSA,A,3,,,,,,,,,,,,,2.3,0.9,2.2*28\r\n"
$GPGSV,2,1,06,04,42,207,36,07,27,305,42,08,49,191,46,09,46,268,41*70\r\n"
$GPGSV,2,2,06,16,51,053,45,26,25,071,38,,,,,,,,*75\r\n"
$GLGSV,2,1,07,65,32,293,46,72,25,228,35,73,21,080,45,74,55,040,40*68\r\n"
$GLGSV,2,2,07,75,41,306,47,83,20,030,37,84,42,102,35,,,,*52\r\n"
$GAGSV,1,1,04,02,75,352,46,07,30,307,39,08,51,238,42,30,34,265,40*62\r\n"
$GNVTG,40.23,T,,M,1.67,N,3.09,K,D*19\r\n"
$GNGST,170230.00,1.828,,,,0.449,0.364,1.146*69\r\n"
$GNZDA,170230.00,02,02,2024,00,00*7B\r\n"
$GNRMC,170231.00,A,4220.2936538,N,07105.1877459,W,1.76,42.02,020224,,,D*65\r\n"
$GNGGA,170231.00,4220.2936538,N,07105.1877459,W,5,15,0.9,25.872,M,-28.725,M,2.0,0061*5F\r\
  \n"
$GPGSA,A,3,04,07,08,09,16,26,,,,,,,2.4,0.9,2.2*3C\r\n"
$GLGSA,A,3,65,72,73,74,75,,,,,,,,2.4,0.9,2.2*22\r\n"
$GAGSA,A,3,02,07,08,30,,,,,,,,,2.4,0.9,2.2*22\r\n"
$GBGSA,A,3,,,,,,,,,,,,,2.4,0.9,2.2*2F\r\n"
$GPGSV,2,1,06,04,42,207,41,07,27,305,40,08,49,191,47,09,46,268,45*77\r\n"
$GPGSV,2,2,06,16,51,053,46,26,25,071,37,,,,,,,,*79\r\n"
$GLGSV,2,1,05,65,32,293,42,72,25,228,35,73,21,080,40,74,55,040,40*6B\r\n"
$GLGSV,2,2,05,75,41,306,46,,,,,,,,,,,,*50\r\n"
$GAGSV,1,1,04,02,75,352,46,07,30,307,41,08,51,238,41,30,34,265,41*6F\r\n"
$GNVTG,42.02,T,,M,1.76,N,3.26,K,D*15\r\n"
$GNGST,170231.00,1.891,,,,0.435,0.355,1.105*64\r\n"
$GNZDA,170231.00,02,02,2024,00,00*7A\r\n"
$GNRMC,170232.00,A,4220.2940044,N,07105.1872928,W,1.92,42.61,020224,,,D*68\r\n"
$GNGGA,170232.00,4220.2940044,N,07105.1872928,W,5,13,1.0,25.747,M,-28.725,M,1.0,0061*59\r\
  \n"
$GPGSA,A,3,04,07,08,09,16,26,,,,,,,2.9,1.0,2.7*3C\r\n"
$GLGSA,A,3,65,73,75,,,,,,,,,,2.9,1.0,2.7*24\r\n"
$GAGSA,A,3,02,07,08,30,,,,,,,,,2.9,1.0,2.7*22\r\n"
$GBGSA,A,3,,,,,,,,,,,,,2.9,1.0,2.7*2F\r\n"
$GPGSV,2,1,06,04,42,207,42,07,27,305,41,08,49,191,45,09,46,268,44*76\r\n"
$GPGSV,2,2,06,16,51,053,46,26,25,071,40,,,,,,,,*79\r\n"
$GLGSV,1,1,03,65,32,293,42,73,21,080,38,75,41,306,45,,,,*5D\r\n"
$GAGSV,1,1,04,02,75,352,46,07,30,307,40,08,51,238,42,30,34,265,43*6F\r\n"
$GNVTG,42.61,T,,M,1.92,N,3.55,K,D*1E\r\n"
$GNGST,170232.00,0.668,,,,0.424,0.347,1.063*6C\r\n"
$GNZDA,170232.00,02,02,2024,00,00*79\r\n"
$GNRMC,170233.00,A,4220.2943683,N,07105.1868439,W,1.82,41.93,020224,,,D*6E\r\n"
$GNGGA,170233.00,4220.2943683,N,07105.1868439,W,5,14,1.0,25.626,M,-28.725,M,1.0,0061*51\r\
  \n"
$GPGSA,A,3,04,07,08,09,16,26,,,,,,,2.9,1.0,2.7*3C\r\n"
$GLGSA,A,3,65,73,74,75,,,,,,,,,2.9,1.0,2.7*27\r\n"
$GAGSA,A,3,02,07,08,30,,,,,,,,,2.9,1.0,2.7*22\r\n"
$GBGSA,A,3,,,,,,,,,,,,,2.9,1.0,2.7*2F\r\n"
$GPGSV,2,1,06,04,42,207,42,07,27,305,39,08,49,191,44,09,46,268,46*7A\r\n"
$GPGSV,2,2,06,16,51,053,46,26,25,071,40,,,,,,,,*79\r\n"
$GLGSV,1,1,04,65,32,293,42,73,21,080,40,74,55,040,39,75,41,306,46*6B\r\n"
$GAGSV,1,1,04,02,75,352,47,07,30,307,40,08,51,238,40,30,34,265,43*6C\r\n"
$GNVTG,41.93,T,,M,1.82,N,3.38,K,D*1A\r\n"
$GNGST,170233.00,0.815,,,,0.413,0.340,1.024*69\r\n"
$GNZDA,170233.00,02,02,2024,00,00*78\r\n"
$GNRMC,170234.00,A,4220.2946982,N,07105.1863846,W,1.80,42.92,020224,,,D*6D\r\n"
$GNGGA,170234.00,4220.2946982,N,07105.1863846,W,5,15,0.9,25.178,M,-28.725,M,2.0,0061*54\r\
  \n"
$GPGSA,A,3,04,07,08,09,16,26,,,,,,,2.4,0.9,2.2*3C\r\n"
$GLGSA,A,3,65,72,73,74,75,,,,,,,,2.4,0.9,2.2*22\r\n"
$GAGSA,A,3,02,07,08,30,,,,,,,,,2.4,0.9,2.2*22\r\n"
$GBGSA,A,3,,,,,,,,,,,,,2.4,0.9,2.2*2F\r\n"
$GPGSV,2,1,06,04,42,207,43,07,27,305,42,08,49,191,46,09,46,268,44*77\r\n"
$GPGSV,2,2,06,16,51,053,46,26,25,071,38,,,,,,,,*76\r\n"
$GLGSV,2,1,05,65,32,293,44,72,25,228,36,73,21,080,40,74,55,040,40*6E\r\n"
$GLGSV,2,2,05,75,41,306,47,,,,,,,,,,,,*51\r\n"
$GAGSV,1,1,04,02,75,352,46,07,30,307,42,08,51,238,42,30,34,265,43*6D\r\n"
$GNVTG,42.92,T,,M,1.80,N,3.33,K,D*11\r\n"
$GNGST,170234.00,1.895,,,,0.402,0.333,0.988*6D\r\n"
$GNZDA,170234.00,02,02,2024,00,00*7F\r\n"
$GNRMC,170235.00,A,4220.2950905,N,07105.1859343,W,1.79,40.74,020224,,,D*6F\r\n"
$GNGGA,170235.00,4220.2950905,N,07105.1859343,W,5,15,0.9,25.055,M,-28.725,M,1.0,0061*57\r\
  \n"
$GPGSA,A,3,04,07,08,09,16,26,,,,,,,2.4,0.9,2.2*3C\r\n"
$GLGSA,A,3,65,72,73,74,75,,,,,,,,2.4,0.9,2.2*22\r\n"
$GAGSA,A,3,02,07,08,30,,,,,,,,,2.4,0.9,2.2*22\r\n"
$GBGSA,A,3,,,,,,,,,,,,,2.4,0.9,2.2*2F\r\n"
$GPGSV,2,1,06,04,42,207,41,07,27,305,40,08,49,191,44,09,46,268,44*75\r\n"
$GPGSV,2,2,06,16,51,053,48,26,25,071,40,,,,,,,,*77\r\n"
$GLGSV,2,1,05,65,32,293,44,72,25,228,35,73,21,080,43,74,55,040,40*6E\r\n"
$GLGSV,2,2,05,75,41,306,48,,,,,,,,,,,,*5E\r\n"
$GAGSV,1,1,04,02,75,352,47,07,30,307,40,08,51,238,43,30,34,265,41*6D\r\n"
$GNVTG,40.74,T,,M,1.79,N,3.31,K,D*1F\r\n"
$GNGST,170235.00,1.736,,,,0.392,0.327,0.952*66\r\n"
$GNZDA,170235.00,02,02,2024,00,00*7E\r\n"
$GNRMC,170236.00,A,4220.2954340,N,07105.1854656,W,1.83,42.71,020224,,,D*6D\r\n"
$GNGGA,170236.00,4220.2954340,N,07105.1854656,W,5,15,0.9,24.652,M,-28.725,M,2.0,0061*54\r\
  \n"
$GPGSA,A,3,04,07,08,09,16,26,,,,,,,2.4,0.9,2.2*3C\r\n"
$GLGSA,A,3,65,72,73,74,75,,,,,,,,2.4,0.9,2.2*22\r\n"
$GAGSA,A,3,02,07,08,30,,,,,,,,,2.4,0.9,2.2*22\r\n"
$GBGSA,A,3,,,,,,,,,,,,,2.4,0.9,2.2*2F\r\n"
$GPGSV,2,1,06,04,42,207,42,07,27,305,42,08,49,191,46,09,46,268,43*71\r\n"
$GPGSV,2,2,06,16,51,053,46,26,25,071,38,,,,,,,,*76\r\n"
$GLGSV,2,1,05,65,32,293,44,72,25,228,36,73,21,080,44,74,55,040,41*6B\r\n"
$GLGSV,2,2,05,75,41,306,48,,,,,,,,,,,,*5E\r\n"
$GAGSV,1,1,04,02,75,352,47,07,30,307,41,08,51,238,42,30,34,265,40*6C\r\n"
$GNVTG,42.71,T,,M,1.83,N,3.39,K,D*15\r\n"
$GNGST,170236.00,1.884,,,,0.382,0.321,0.920*61\r\n"
$GNZDA,170236.00,02,02,2024,00,00*7D\r\n"
$GNRMC,170237.00,A,4220.2958160,N,07105.1850126,W,1.79,41.43,020224,,,D*63\r\n"
$GNGGA,170237.00,4220.2958160,N,07105.1850126,W,5,15,0.9,24.611,M,-28.725,M,1.0,0061*59\r\
  \n"
$GPGSA,A,3,04,07,08,09,16,26,,,,,,,2.4,0.9,2.2*3C\r\n"
$GLGSA,A,3,65,72,73,74,75,,,,,,,,2.4,0.9,2.2*22\r\n"
$GAGSA,A,3,02,07,08,30,,,,,,,,,2.4,0.9,2.2*22\r\n"
$GBGSA,A,3,,,,,,,,,,,,,2.4,0.9,2.2*2F\r\n"
$GPGSV,2,1,06,04,42,207,42,07,27,305,43,08,49,191,46,09,46,268,44*77\r\n"
$GPGSV,2,2,06,16,51,053,45,26,25,071,38,,,,,,,,*75\r\n"
$GLGSV,2,1,05,65,32,293,45,72,25,228,35,73,21,080,43,74,55,041,38*61\r\n"
$GLGSV,2,2,05,75,41,306,48,,,,,,,,,,,,*5E\r\n"
$GAGSV,1,1,04,02,75,352,47,07,30,307,41,08,51,238,44,30,34,265,42*68\r\n"
$GNVTG,41.43,T,,M,1.79,N,3.32,K,D*19\r\n"
$GNGST,170237.00,1.766,,,,0.373,0.315,0.887*66\r\n"
$GNZDA,170237.00,02,02,2024,00,00*7C\r\n"
$GNRMC,170238.00,A,4220.2961923,N,07105.1845715,W,1.66,40.93,020224,,,D*69\r\n"
$GNGGA,170238.00,4220.2961923,N,07105.1845715,W,5,16,0.9,24.640,M,-28.725,M,1.0,0061*56\r\
  \n"
$GPGSA,A,3,04,07,08,09,16,26,,,,,,,2.3,0.9,2.2*3B\r\n"
$GLGSA,A,3,65,72,73,74,75,84,,,,,,,2.3,0.9,2.2*29\r\n"
$GAGSA,A,3,02,07,08,30,,,,,,,,,2.3,0.9,2.2*25\r\n"
$GBGSA,A,3,,,,,,,,,,,,,2.3,0.9,2.2*28\r\n"
$GPGSV,2,1,06,04,42,207,42,07,27,305,40,08,49,191,46,09,46,268,46*76\r\n"
$GPGSV,2,2,06,16,51,053,46,26,25,071,41,,,,,,,,*78\r\n"
$GLGSV,2,1,06,65,32,293,44,72,25,228,35,73,21,080,42,74,55,041,41*6C\r\n"
$GLGSV,2,2,06,75,41,306,48,84,42,102,36,,,,,,,,*61\r\n"
$GAGSV,1,1,04,02,75,352,47,07,30,307,41,08,51,238,43,30,34,265,43*6E\r\n"
$GNVTG,40.93,T,,M,1.66,N,3.07,K,D*1D\r\n"
$GNGST,170238.00,1.701,,,,0.365,0.308,0.852*6B\r\n"
$GNZDA,170238.00,02,02,2024,00,00*73\r\n"
$GNRMC,170239.00,A,4220.2965776,N,07105.1841485,W,1.83,39.20,020224,,,D*61\r\n"
$GNGGA,170239.00,4220.2965776,N,07105.1841485,W,5,14,1.0,24.698,M,-28.725,M,2.0,0061*5F\r\
  \n"
$GPGSA,A,3,04,07,08,09,16,26,,,,,,,2.9,1.0,2.7*3C\r\n"
$GLGSA,A,3,65,73,74,75,,,,,,,,,2.9,1.0,2.7*27\r\n"
$GAGSA,A,3,02,07,08,30,,,,,,,,,2.9,1.0,2.7*22\r\n"
$GBGSA,A,3,,,,,,,,,,,,,2.9,1.0,2.7*2F\r\n"
$GPGSV,2,1,06,04,42,207,41,07,27,305,38,08,49,191,46,09,46,268,44*78\r\n"
$GPGSV,2,2,06,16,51,053,46,26,25,071,41,,,,,,,,*78\r\n"
$GLGSV,1,1,04,65,32,293,44,73,21,080,41,74,55,041,42,75,41,306,49*6E\r\n"
$GAGSV,1,1,04,02,75,352,46,07,30,307,38,08,51,238,44,30,34,265,40*65\r\n"
$GNVTG,39.20,T,,M,1.83,N,3.40,K,D*13\r\n"
$GNGST,170239.00,0.507,,,,0.358,0.303,0.826*69\r\n"
$GNZDA,170239.00,02,02,2024,00,00*72\r\n"
$GNRMC,170240.00,A,4220.2969500,N,07105.1837223,W,1.81,38.95,020224,,,D*66\r\n"
$GNGGA,170240.00,4220.2969500,N,07105.1837223,W,5,15,1.0,24.473,M,-28.725,M,1.0,0061*50\r\
  \n"
$GPGSA,A,3,04,07,08,09,16,26,,,,,,,2.8,1.0,2.6*3C\r\n"
$GLGSA,A,3,65,73,74,75,84,,,,,,,,2.8,1.0,2.6*2B\r\n"
$GAGSA,A,3,02,07,08,30,,,,,,,,,2.8,1.0,2.6*22\r\n"
$GBGSA,A,3,,,,,,,,,,,,,2.8,1.0,2.6*2F\r\n"
$GPGSV,2,1,06,04,42,207,41,07,27,305,39,08,49,191,48,09,46,268,44*77\r\n"
$GPGSV,2,2,06,16,51,053,43,26,25,071,40,,,,,,,,*7C\r\n"
$GLGSV,2,1,05,65,32,293,45,73,21,080,41,74,55,041,40,75,41,307,47*60\r\n"
$GLGSV,2,2,05,84,42,102,36,,,,,,,,,,,,*5C\r\n"
$GAGSV,1,1,04,02,75,352,46,07,30,307,38,08,51,238,43,30,34,265,37*62\r\n"
$GNVTG,38.95,T,,M,1.81,N,3.35,K,D*1C\r\n"
$GNGST,170240.00,0.630,,,,0.350,0.296,0.795*62\r\n"
$GNZDA,170240.00,02,02,2024,00,00*7C\r\n"
$GNRMC,170241.00,A,4220.2973325,N,07105.1832178,W,2.14,42.93,020224,,,D*61\r\n"
$GNGGA,170241.00,4220.2973325,N,07105.1832178,W,5,14,1.0,24.237,M,-28.725,M,2.0,0061*57\r\
  \n"
$GPGSA,A,3,04,07,08,09,16,26,,,,,,,2.9,1.0,2.7*3C\r\n"
$GLGSA,A,3,65,73,74,75,,,,,,,,,2.9,1.0,2.7*27\r\n"
$GAGSA,A,3,02,07,08,30,,,,,,,,,2.9,1.0,2.7*22\r\n"
$GBGSA,A,3,,,,,,,,,,,,,2.9,1.0,2.7*2F\r\n"
$GPGSV,2,1,06,04,42,207,38,07,27,305,35,08,49,191,43,09,46,268,40*7A\r\n"
$GPGSV,2,2,06,16,51,053,38,26,25,071,35,,,,,,,,*72\r\n"
$GLGSV,1,1,04,65,32,293,39,73,21,080,37,74,55,041,36,75,41,307,43*6D\r\n"
$GAGSV,1,1,04,02,75,352,41,07,30,307,36,08,51,238,38,30,34,265,36*66\r\n"
$GNVTG,42.93,T,,M,2.14,N,3.96,K,D*11\r\n"
$GNGST,170241.00,0.389,,,,0.344,0.292,0.771*6F\r\n"
$GNZDA,170241.00,02,02,2024,00,00*7D\r\n"
$GNRMC,170242.00,A,4220.2977208,N,07105.1827286,W,1.84,43.05,020224,,,D*6A\r\n"
$GNGGA,170242.00,4220.2977208,N,07105.1827286,W,5,14,1.0,24.127,M,-28.725,M,1.0,0061*59\r\
  \n"
$GPGSA,A,3,04,07,08,09,16,26,,,,,,,2.9,1.0,2.7*3C\r\n"
$GLGSA,A,3,65,73,74,75,,,,,,,,,2.9,1.0,2.7*27\r\n"
$GAGSA,A,3,02,07,08,30,,,,,,,,,2.9,1.0,2.7*22\r\n"
$GBGSA,A,3,,,,,,,,,,,,,2.9,1.0,2.7*2F\r\n"
$GPGSV,2,1,06,04,42,207,38,07,27,305,38,08,49,191,43,09,46,268,41*76\r\n"
$GPGSV,2,2,06,16,51,053,38,26,25,071,35,,,,,,,,*72\r\n"
$GLGSV,1,1,04,65,32,293,40,73,21,080,39,74,55,041,39,75,41,307,45*64\r\n"
$GAGSV,1,1,04,02,75,352,41,07,30,307,36,08,51,238,38,30,34,265,37*67\r\n"
$GNVTG,43.05,T,,M,1.84,N,3.42,K,D*1C\r\n"
$GNGST,170242.00,1.052,,,,0.337,0.287,0.747*6D\r\n"
$GNZDA,170242.00,02,02,2024,00,00*7E\r\n"
$GNRMC,170243.00,A,4220.2981297,N,07105.1822767,W,1.91,40.35,020224,,,D*6F\r\n"
$GNGGA,170243.00,4220.2981297,N,07105.1822767,W,5,13,1.1,24.026,M,-28.725,M,1.0,0061*5E\r\
  \n"
$GPGSA,A,3,04,07,08,09,16,,,,,,,,3.0,1.1,2.8*3E\r\n"
$GLGSA,A,3,65,73,74,75,,,,,,,,,3.0,1.1,2.8*21\r\n"
$GAGSA,A,3,02,07,08,30,,,,,,,,,3.0,1.1,2.8*24\r\n"
$GBGSA,A,3,,,,,,,,,,,,,3.0,1.1,2.8*29\r\n"
$GPGSV,2,1,05,04,42,207,41,07,27,305,40,08,49,191,46,09,46,268,42*72\r\n"
$GPGSV,2,2,05,16,51,053,40,,,,,,,,,,,,*4D\r\n"
$GLGSV,1,1,04,65,32,293,42,73,21,080,38,74,55,041,36,75,41,307,43*6E\r\n"
$GAGSV,1,1,04,02,75,352,42,07,30,307,39,08,51,238,40,30,34,265,38*6B\r\n"
$GNVTG,40.35,T,,M,1.91,N,3.54,K,D*1F\r\n"
$GNGST,170243.00,1.020,,,,0.332,0.284,0.725*6B\r\n"
$GNZDA,170243.00,02,02,2024,00,00*7F\r\n"
$GNRMC,170244.00,A,4220.2985015,N,07105.1818182,W,1.71,41.69,020224,,,D*66\r\n"
$GNGGA,170244.00,4220.2985015,N,07105.1818182,W,5,13,1.0,23.919,M,-28.725,M,2.0,0061*51\r\
  \n"
$GPGSA,A,3,04,07,08,09,16,26,,,,,,,2.9,1.0,2.7*3C\r\n"
$GLGSA,A,3,65,73,75,,,,,,,,,,2.9,1.0,2.7*24\r\n"
$GAGSA,A,3,02,07,08,30,,,,,,,,,2.9,1.0,2.7*22\r\n"
$GBGSA,A,3,,,,,,,,,,,,,2.9,1.0,2.7*2F\r\n"
$GPGSV,2,1,06,04,42,207,42,07,27,305,41,08,49,191,45,09,46,268,41*73\r\n"
$GPGSV,2,2,06,16,51,053,40,26,25,071,36,,,,,,,,*7E\r\n"
$GLGSV,1,1,03,65,32,293,41,73,21,080,38,75,41,307,43,,,,*59\r\n"
$GAGSV,1,1,04,02,75,352,43,07,30,307,39,08,51,238,40,30,34,265,36*64\r\n"
$GNVTG,41.69,T,,M,1.71,N,3.17,K,D*1E\r\n"
$GNGST,170244.00,0.197,,,,0.326,0.280,0.704*62\r\n"
$GNZDA,170244.00,02,02,2024,00,00*78\r\n"
$GNRMC,170245.00,A,4220.2988836,N,07105.1813657,W,1.88,40.26,020224,,,D*6B\r\n"
$GNGGA,170245.00,4220.2988836,N,07105.1813657,W,5,13,1.1,23.799,M,-28.725,M,1.0,0061*54\r\
  \n"
$GPGSA,A,3,04,07,08,09,16,26,,,,,,,3.4,1.1,3.2*35\r\n"
$GLGSA,A,3,65,74,75,,,,,,,,,,3.4,1.1,3.2*2A\r\n"
$GAGSA,A,3,02,07,08,30,,,,,,,,,3.4,1.1,3.2*2B\r\n"
$GBGSA,A,3,,,,,,,,,,,,,3.4,1.1,3.2*26\r\n"
$GPGSV,2,1,06,04,42,207,42,07,27,305,41,08,49,191,43,09,46,268,42*76\r\n"
$GPGSV,2,2,06,16,51,053,40,26,25,071,36,,,,,,,,*7E\r\n"
$GLGSV,1,1,03,65,32,293,41,74,55,041,37,75,41,307,43,,,,*5F\r\n"
$GAGSV,1,1,04,02,75,352,44,07,30,307,38,08,51,238,40,30,34,265,39*6D\r\n"
$GNVTG,40.26,T,,M,1.88,N,3.48,K,D*18\r\n"
$GNGST,170245.00,0.283,,,,0.321,0.277,0.683*64\r\n"
$GNZDA,170245.00,02,02,2024,00,00*79\r\n"
$GNRMC,170246.00,A,4220.2992613,N,07105.1809215,W,1.85,42.08,020224,,,D*60\r\n"
$GNGGA,170246.00,4220.2992613,N,07105.1809215,W,5,12,1.1,23.721,M,-28.725,M,2.0,0061*5D\r\
  \n"
$GPGSA,A,3,04,07,08,09,16,,,,,,,,3.0,1.1,2.8*3E\r\n"
$GLGSA,A,3,65,73,75,,,,,,,,,,3.0,1.1,2.8*22\r\n"
$GAGSA,A,3,02,07,08,30,,,,,,,,,3.0,1.1,2.8*24\r\n"
$GBGSA,A,3,,,,,,,,,,,,,3.0,1.1,2.8*29\r\n"
$GPGSV,2,1,05,04,42,207,39,07,28,305,41,08,49,191,46,09,46,268,41*70\r\n"
$GPGSV,2,2,05,16,51,053,41,,,,,,,,,,,,*4C\r\n"
$GLGSV,1,1,03,65,32,293,41,73,21,080,35,75,41,307,41,,,,*56\r\n"
$GAGSV,1,1,04,02,75,352,42,07,30,307,38,08,51,238,40,30,34,265,37*65\r\n"
$GNVTG,42.08,T,,M,1.85,N,3.42,K,D*11\r\n"
$GNGST,170246.00,0.903,,,,0.316,0.274,0.666*68\r\n"
$GNZDA,170246.00,02,02,2024,00,00*7A\r\n"
$GNRMC,170247.00,A,4220.2996551,N,07105.1804676,W,1.94,39.81,020224,,,D*61\r\n"
$GNGGA,170247.00,4220.2996551,N,07105.1804676,W,5,12,1.1,23.584,M,-28.725,M,1.0,0061*5F\r\
  \n"
$GPGSA,A,3,04,07,08,09,16,,,,,,,,3.0,1.1,2.8*3E\r\n"
$GLGSA,A,3,65,73,75,,,,,,,,,,3.0,1.1,2.8*22\r\n"
$GAGSA,A,3,02,07,08,30,,,,,,,,,3.0,1.1,2.8*24\r\n"
$GBGSA,A,3,,,,,,,,,,,,,3.0,1.1,2.8*29\r\n"
$GPGSV,2,1,05,04,42,207,40,07,28,305,41,08,49,191,46,09,46,268,42*7D\r\n"
$GPGSV,2,2,05,16,51,053,42,,,,,,,,,,,,*4F\r\n"
$GLGSV,1,1,03,65,32,293,41,73,21,080,35,75,41,307,42,,,,*55\r\n"
$GAGSV,1,1,04,02,75,352,42,07,30,307,38,08,51,238,40,30,34,265,37*65\r\n"
$GNVTG,39.81,T,,M,1.94,N,3.59,K,D*16\r\n"
$GNGST,170247.00,0.721,,,,0.312,0.271,0.649*6B\r\n"
$GNZDA,170247.00,02,02,2024,00,00*7B\r\n"
$GNRMC,170248.00,A,4220.3000428,N,07105.1800050,W,1.85,42.05,020224,,,D*60\r\n"
$GNGGA,170248.00,4220.3000428,N,07105.1800050,W,5,13,1.0,23.510,M,-28.725,M,1.0,0061*53\r\
  \n"
$GPGSA,A,3,04,07,08,09,16,26,,,,,,,2.9,1.0,2.7*3C\r\n"
$GLGSA,A,3,65,73,75,,,,,,,,,,2.9,1.0,2.7*24\r\n"
$GAGSA,A,3,02,07,08,30,,,,,,,,,2.9,1.0,2.7*22\r\n"
$GBGSA,A,3,,,,,,,,,,,,,2.9,1.0,2.7*2F\r\n"
$GPGSV,2,1,06,04,42,207,40,07,28,305,39,08,49,191,45,09,46,268,41*71\r\n"
$GPGSV,2,2,06,16,51,053,41,26,25,071,36,,,,,,,,*7F\r\n"
$GLGSV,1,1,03,65,32,293,40,73,21,080,35,75,41,307,43,,,,*55\r\n"
$GAGSV,1,1,04,02,75,352,42,07,30,307,38,08,51,238,41,30,34,265,35*66\r\n"
$GNVTG,42.05,T,,M,1.85,N,3.42,K,D*1C\r\n"
$GNGST,170248.00,0.579,,,,0.307,0.267,0.629*6E\r\n"
$GNZDA,170248.00,02,02,2024,00,00*74\r\n"
$GNRMC,170249.00,A,4220.3004255,N,07105.1795165,W,1.93,43.87,020224,,,D*61\r\n"
$GNGGA,170249.00,4220.3004255,N,07105.1795165,W,5,13,1.0,23.432,M,-28.725,M,2.0,0061*5C\r\
  \n"
$GPGSA,A,3,04,07,08,09,16,26,,,,,,,2.9,1.0,2.7*3C\r\n"
$GLGSA,A,3,65,73,75,,,,,,,,,,2.9,1.0,2.7*24\r\n"
$GAGSA,A,3,02,07,08,30,,,,,,,,,2.9,1.0,2.7*22\r\n"
$GBGSA,A,3,,,,,,,,,,,,,2.9,1.0,2.7*2F\r\n"
$GPGSV,2,1,06,04,42,207,42,07,28,305,39,08,49,191,46,09,46,268,41*70\r\n"
$GPGSV,2,2,06,16,51,053,41,26,25,071,35,,,,,,,,*7C\r\n"
$GLGSV,1,1,03,65,32,293,40,73,21,080,38,75,41,307,42,,,,*59\r\n"
$GAGSV,1,1,04,02,75,352,42,07,30,307,38,08,51,238,40,30,34,265,37*65\r\n"
$GNVTG,43.87,T,,M,1.93,N,3.58,K,D*1B\r\n"
$GNGST,170249.00,0.504,,,,0.303,0.264,0.613*6B\r\n"
$GNZDA,170249.00,02,02,2024,00,00*75\r\n"
$GNRMC,170250.00,A,4220.3008414,N,07105.1790357,W,1.95,41.54,020224,,,D*6A\r\n"
$GNGGA,170250.00,4220.3008414,N,07105.1790357,W,5,13,1.0,23.504,M,-28.725,M,1.0,0061*5A\r\
  \n"
$GPGSA,A,3,04,07,08,09,16,26,,,,,,,2.9,1.0,2.7*3C\r\n"
$GLGSA,A,3,65,73,75,,,,,,,,,,2.9,1.0,2.7*24\r\n"
$GAGSA,A,3,02,07,08,30,,,,,,,,,2.9,1.0,2.7*22\r\n"
$GBGSA,A,3,,,,,,,,,,,,,2.9,1.0,2.7*2F\r\n"
$GPGSV,2,1,06,04,42,207,41,07,28,305,42,08,49,191,43,09,46,268,43*78\r\n"
$GPGSV,2,2,06,16,51,053,41,26,25,071,35,,,,,,,,*7C\r\n"
$GLGSV,1,1,03,65,32,293,41,73,21,080,42,75,41,307,44,,,,*53\r\n"
$GAGSV,1,1,04,02,75,352,40,07,30,307,39,08,51,238,41,30,34,265,39*69\r\n"
$GNVTG,41.54,T,,M,1.95,N,3.62,K,D*18\r\n"
$GNGST,170250.00,1.010,,,,0.299,0.260,0.596*6A\r\n"
$GNZDA,170250.00,02,02,2024,00,00*7D\r\n"
$GNRMC,170251.00,A,4220.3012553,N,07105.1785950,W,1.95,39.47,020224,,,D*66\r\n"
$GNGGA,170251.00,4220.3012553,N,07105.1785950,W,5,14,1.0,23.585,M,-28.725,M,2.0,0061*56\r\
  \n"
$GPGSA,A,3,04,07,08,09,16,26,,,,,,,2.9,1.0,2.7*3C\r\n"
$GLGSA,A,3,65,73,74,75,,,,,,,,,2.9,1.0,2.7*27\r\n"
$GAGSA,A,3,02,07,08,30,,,,,,,,,2.9,1.0,2.7*22\r\n"
$GBGSA,A,3,,,,,,,,,,,,,2.9,1.0,2.7*2F\r\n"
$GPGSV,2,1,06,04,42,207,39,07,28,305,41,08,49,191,43,09,46,268,42*75\r\n"
$GPGSV,2,2,06,16,51,053,42,26,25,071,39,,,,,,,,*73\r\n"
$GLGSV,1,1,04,65,32,293,39,73,21,080,38,74,55,041,38,75,41,307,45*6A\r\n"
$GAGSV,1,1,04,02,75,352,43,07,30,307,39,08,51,238,41,30,34,265,38*6B\r\n"
$GNVTG,39.47,T,,M,1.95,N,3.61,K,D*16\r\n"
$GNGST,170251.00,0.745,,,,0.295,0.257,0.581*63\r\n"
$GNZDA,170251.00,02,02,2024,00,00*7C\r\n"
$GNRMC,170252.00,A,4220.3016703,N,07105.1781071,W,2.07,41.32,020224,,,D*6D\r\n"
$GNGGA,170252.00,4220.3016703,N,07105.1781071,W,5,14,1.0,23.475,M,-28.725,M,1.0,0061*55\r\
  \n"
$GPGSA,A,3,04,07,08,09,16,26,,,,,,,2.9,1.0,2.7*3C\r\n"
$GLGSA,A,3,65,73,74,75,,,,,,,,,2.9,1.0,2.7*27\r\n"
$GAGSA,A,3,02,07,08,30,,,,,,,,,2.9,1.0,2.7*22\r\n"
$GBGSA,A,3,,,,,,,,,,,,,2.9,1.0,2.7*2F\r\n"
$GPGSV,2,1,06,04,42,207,41,07,28,305,39,08,49,191,44,09,46,268,40*70\r\n"
$GPGSV,2,2,06,16,51,053,40,26,25,071,36,,,,,,,,*7E\r\n"
$GLGSV,1,1,04,65,32,293,41,73,21,080,37,74,55,041,38,75,41,307,43*6C\r\n"
$GAGSV,1,1,04,02,75,352,42,07,30,307,38,08,51,238,39,30,34,265,38*64\r\n"
$GNVTG,41.32,T,,M,2.07,N,3.84,K,D*18\r\n"
$GNGST,170252.00,0.638,,,,0.291,0.254,0.566*65\r\n"
$GNZDA,170252.00,02,02,2024,00,00*7F\r\n"
$GNRMC,170253.00,A,4220.3020935,N,07105.1776316,W,1.99,39.95,020224,,,D*6E\r\n"
$GNGGA,170253.00,4220.3020935,N,07105.1776316,W,5,13,1.1,23.413,M,-28.725,M,1.0,0061*56\r\
  \n"
$GPGSA,A,3,04,07,08,09,16,26,,,,,,,3.4,1.1,3.2*35\r\n"
$GLGSA,A,3,65,74,75,,,,,,,,,,3.4,1.1,3.2*2A\r\n"
$GAGSA,A,3,02,07,08,30,,,,,,,,,3.4,1.1,3.2*2B\r\n"
$GBGSA,A,3,,,,,,,,,,,,,3.4,1.1,3.2*26\r\n"
$GPGSV,2,1,06,04,42,207,42,07,28,305,41,08,49,191,45,09,46,268,41*7C\r\n"
$GPGSV,2,2,06,16,51,053,41,26,25,071,38,,,,,,,,*71\r\n"
$GLGSV,1,1,03,65,32,293,42,74,55,041,36,75,41,307,44,,,,*5A\r\n"
$GAGSV,1,1,04,02,75,352,42,07,30,307,38,08,51,238,39,30,34,265,37*6B\r\n"
$GNVTG,39.95,T,,M,1.99,N,3.69,K,D*1D\r\n"
$GNGST,170253.00,0.582,,,,0.287,0.251,0.552*63\r\n"
$GNZDA,170253.00,02,02,2024,00,00*7E\r\n"
$GNRMC,170254.00,A,4220.3025038,N,07105.1771595,W,1.98,40.46,020224,,,D*63\r\n"
$GNGGA,170254.00,4220.3025038,N,07105.1771595,W,5,14,1.0,23.355,M,-28.725,M,2.0,0061*5A\r\
  \n"
$GPGSA,A,3,04,07,08,09,16,26,,,,,,,2.9,1.0,2.7*3C\r\n"
$GLGSA,A,3,65,73,74,75,,,,,,,,,2.9,1.0,2.7*27\r\n"
$GAGSA,A,3,02,07,08,30,,,,,,,,,2.9,1.0,2.7*22\r\n"
$GBGSA,A,3,,,,,,,,,,,,,2.9,1.0,2.7*2F\r\n"
$GPGSV,2,1,06,04,42,207,39,07,28,305,40,08,49,191,45,09,46,268,42*72\r\n"
$GPGSV,2,2,06,16,51,053,41,26,25,071,35,,,,,,,,*7C\r\n"
$GLGSV,1,1,04,65,32,293,43,73,21,081,36,74,55,041,37,75,41,307,45*67\r\n"
$GAGSV,1,1,04,02,75,352,42,07,30,307,39,08,51,238,39,30,34,265,36*6B\r\n"
$GNVTG,40.46,T,,M,1.98,N,3.67,K,D*12\r\n"
$GNGST,170254.00,0.505,,,,0.284,0.248,0.539*6D\r\n"
$GNZDA,170254.00,02,02,2024,00,00*79\r\n"
$GNRMC,170255.00,A,4220.3029200,N,07105.1766641,W,2.09,40.93,020224,,,D*68\r\n"
$GNGGA,170255.00,4220.3029200,N,07105.1766641,W,5,12,1.1,23.232,M,-28.725,M,1.0,0061*56\r\
  \n"
$GPGSA,A,3,04,07,08,09,16,,,,,,,,3.0,1.1,2.8*3E\r\n"
$GLGSA,A,3,65,73,75,,,,,,,,,,3.0,1.1,2.8*22\r\n"
$GAGSA,A,3,02,07,08,30,,,,,,,,,3.0,1.1,2.8*24\r\n"
$GBGSA,A,3,,,,,,,,,,,,,3.0,1.1,2.8*29\r\n"
$GPGSV,2,1,05,04,42,207,40,07,28,305,39,08,49,191,45,09,46,268,43*70\r\n"
$GPGSV,2,2,05,16,51,053,40,,,,,,,,,,,,*4D\r\n"
$GLGSV,1,1,03,65,32,293,42,73,21,081,36,75,41,307,43,,,,*55\r\n"
$GAGSV,1,1,04,02,75,352,41,07,30,307,38,08,51,238,39,30,34,265,37*68\r\n"
$GNVTG,40.93,T,,M,2.09,N,3.87,K,D*1F\r\n"
$GNGST,170255.00,0.571,,,,0.280,0.246,0.528*65\r\n"
$GNZDA,170255.00,02,02,2024,00,00*78\r\n"
$GNRMC,170256.00,A,4220.3033575,N,07105.1761532,W,2.18,40.61,020224,,,D*68\r\n"
$GNGGA,170256.00,4220.3033575,N,07105.1761532,W,5,12,1.6,23.049,M,-28.725,M,2.0,0061*51\r\
  \n"
$GPGSA,A,3,04,07,08,09,16,,,,,,,,5.9,1.6,5.7*3E\r\n"
$GLGSA,A,3,65,74,75,,,,,,,,,,5.9,1.6,5.7*25\r\n"
$GAGSA,A,3,02,07,08,30,,,,,,,,,5.9,1.6,5.7*24\r\n"
$GBGSA,A,3,,,,,,,,,,,,,5.9,1.6,5.7*29\r\n"
$GPGSV,2,1,05,04,42,207,40,07,28,305,39,08,49,191,45,09,46,268,41*72\r\n"
$GPGSV,2,2,05,16,51,053,40,,,,,,,,,,,,*4D\r\n"
$GLGSV,1,1,03,65,32,293,42,74,55,041,37,75,41,307,44,,,,*5B\r\n"
$GAGSV,1,1,04,02,75,352,41,07,30,307,37,08,51,238,39,30,34,265,36*66\r\n"
$GNVTG,40.61,T,,M,2.18,N,4.04,K,D*1E\r\n"
$GNGST,170256.00,0.356,,,,0.277,0.244,0.518*6C\r\n"
$GNZDA,170256.00,02,02,2024,00,00*7B\r\n"
$GNRMC,170257.00,A,4220.3038109,N,07105.1756674,W,2.09,37.52,020224,,,D*68\r\n"
$GNGGA,170257.00,4220.3038109,N,07105.1756674,W,5,13,1.0,22.947,M,-28.725,M,1.0,0061*53\r\
  \n"
$GPGSA,A,3,04,07,08,09,16,26,,,,,,,2.9,1.0,2.7*3C\r\n"
$GLGSA,A,3,65,73,75,,,,,,,,,,2.9,1.0,2.7*24\r\n"
$GAGSA,A,3,02,07,08,30,,,,,,,,,2.9,1.0,2.7*22\r\n"
$GBGSA,A,3,,,,,,,,,,,,,2.9,1.0,2.7*2F\r\n"
$GPGSV,2,1,06,04,42,207,40,07,28,305,38,08,49,191,46,09,46,268,42*70\r\n"
$GPGSV,2,2,06,16,51,053,39,26,25,071,35,,,,,,,,*73\r\n"
$GLGSV,1,1,03,65,32,293,39,73,21,081,35,75,41,307,43,,,,*5A\r\n"
$GAGSV,1,1,04,02,75,352,41,07,30,307,37,08,51,238,39,30,34,265,36*66\r\n"
$GNVTG,37.52,T,,M,2.09,N,3.87,K,D*12\r\n"
$GNGST,170257.00,0.733,,,,0.274,0.242,0.504*62\r\n"
$GNZDA,170257.00,02,02,2024,00,00*7A\r\n"
$GNRMC,170258.00,A,4220.3042128,N,07105.1751625,W,1.87,42.47,020224,,,D*69\r\n"
$GNGGA,170258.00,4220.3042128,N,07105.1751625,W,5,13,1.0,22.819,M,-28.725,M,1.0,0061*5B\r\
  \n"
$GPGSA,A,3,04,07,08,09,16,26,,,,,,,2.9,1.0,2.7*3C\r\n"
$GLGSA,A,3,65,73,75,,,,,,,,,,2.9,1.0,2.7*24\r\n"
$GAGSA,A,3,02,07,08,30,,,,,,,,,2.9,1.0,2.7*22\r\n"
$GBGSA,A,3,,,,,,,,,,,,,2.9,1.0,2.7*2F\r\n"
$GPGSV,2,1,06,04,42,207,40,07,28,305,38,08,49,191,44,09,46,268,40*70\r\n"
$GPGSV,2,2,06,16,51,053,38,26,25,071,36,,,,,,,,*71\r\n"
$GLGSV,1,1,03,65,32,293,39,73,21,081,36,75,41,307,39,,,,*54\r\n"
$GAGSV,1,1,04,02,75,352,43,07,30,307,36,08,51,238,39,30,34,265,36*65\r\n"
$GNVTG,42.47,T,,M,1.87,N,3.45,K,D*1F\r\n"
$GNGST,170258.00,0.699,,,,0.271,0.239,0.492*6B\r\n"
$GNZDA,170258.00,02,02,2024,00,00*75\r\n"
$GNRMC,170259.00,A,4220.3046394,N,07105.1746971,W,1.96,38.41,020224,,,D*6A\r\n"
$GNGGA,170259.00,4220.3046394,N,07105.1746971,W,5,12,1.1,22.882,M,-28.725,M,2.0,0061*52\r\
  \n"
$GPGSA,A,3,04,07,08,09,16,26,,,,,,,3.4,1.1,3.2*35\r\n"
$GLGSA,A,3,65,74,75,,,,,,,,,,3.4,1.1,3.2*2A\r\n"
$GAGSA,A,3,02,07,08,,,,,,,,,,3.4,1.1,3.2*28\r\n"
$GBGSA,A,3,,,,,,,,,,,,,3.4,1.1,3.2*26\r\n"
$GPGSV,2,1,06,04,42,207,39,07,28,305,40,08,49,191,44,09,46,268,40*71\r\n"
$GPGSV,2,2,06,16,51,053,41,26,25,071,36,,,,,,,,*7F\r\n"
$GLGSV,1,1,03,65,32,293,42,74,55,041,35,75,41,307,43,,,,*5E\r\n"
$GAGSV,1,1,03,02,75,352,41,07,30,307,36,08,51,238,39,,,,*50\r\n"
$GNVTG,38.41,T,,M,1.96,N,3.62,K,D*11\r\n"
$GNGST,170259.00,0.331,,,,0.268,0.237,0.482*6A\r\n"
$GNZDA,170259.00,02,02,2024,00,00*74\r\n"
$GNRMC,170300.00,A,4220.3050516,N,07105.1742150,W,1.97,41.16,020224,,,D*6E\r\n"
$GNGGA,170300.00,4220.3050516,N,07105.1742150,W,5,14,1.0,22.902,M,-28.725,M,1.0,0061*56\r\
  \n"
$GPGSA,A,3,04,07,08,09,16,26,,,,,,,2.9,1.0,2.7*3C\r\n"
$GLGSA,A,3,65,73,74,75,,,,,,,,,2.9,1.0,2.7*27\r\n"
$GAGSA,A,3,02,07,08,30,,,,,,,,,2.9,1.0,2.7*22\r\n"
$GBGSA,A,3,,,,,,,,,,,,,2.9,1.0,2.7*2F\r\n"
$GPGSV,2,1,06,04,42,207,40,07,28,305,40,08,49,191,44,09,46,268,41*7E\r\n"
$GPGSV,2,2,06,16,51,053,41,26,25,071,36,,,,,,,,*7F\r\n"
$GLGSV,1,1,04,65,32,293,42,73,20,081,36,74,55,041,36,75,41,307,45*66\r\n"
$GAGSV,1,1,04,02,75,352,42,07,30,307,37,08,51,238,39,30,34,265,36*65\r\n"
$GNVTG,41.16,T,,M,1.97,N,3.65,K,D*1B\r\n"
$GNGST,170300.00,0.439,,,,0.265,0.234,0.471*6A\r\n"
$GNZDA,170300.00,02,02,2024,00,00*79\r\n"
$GNRMC,170301.00,A,4220.3054719,N,07105.1736672,W,2.24,43.44,020224,,,D*6C\r\n"
$GNGGA,170301.00,4220.3054719,N,07105.1736672,W,5,14,1.0,22.842,M,-28.725,M,2.0,0061*5C\r\
  \n"
$GPGSA,A,3,04,07,08,09,16,26,,,,,,,2.9,1.0,2.7*3C\r\n"
$GLGSA,A,3,65,73,74,75,,,,,,,,,2.9,1.0,2.7*27\r\n"
$GAGSA,A,3,02,07,08,30,,,,,,,,,2.9,1.0,2.7*22\r\n"
$GBGSA,A,3,,,,,,,,,,,,,2.9,1.0,2.7*2F\r\n"
$GPGSV,2,1,06,04,42,207,41,07,28,305,40,08,49,191,43,09,46,268,41*78\r\n"
$GPGSV,2,2,06,16,51,053,39,26,25,071,36,,,,,,,,*70\r\n"
$GLGSV,1,1,04,65,32,293,42,73,20,081,36,74,55,041,37,75,41,307,45*67\r\n"
$GAGSV,1,1,04,02,75,352,41,07,30,307,37,08,51,238,41,30,34,265,37*68\r\n"
$GNVTG,43.44,T,,M,2.24,N,4.14,K,D*14\r\n"
$GNGST,170301.00,0.527,,,,0.262,0.232,0.462*66\r\n"
$GNZDA,170301.00,02,02,2024,00,00*78\r\n"
$GNRMC,170302.00,A,4220.3059069,N,07105.1731685,W,2.09,39.92,020224,,,D*64\r\n"
$GNGGA,170302.00,4220.3059069,N,07105.1731685,W,5,13,1.0,22.662,M,-28.725,M,1.0,0061*55\r\
  \n"
$GPGSA,A,3,04,07,08,09,16,26,,,,,,,2.9,1.0,2.7*3C\r\n"
$GLGSA,A,3,65,73,75,,,,,,,,,,2.9,1.0,2.7*24\r\n"
$GAGSA,A,3,02,07,08,30,,,,,,,,,2.9,1.0,2.7*22\r\n"
$GBGSA,A,3,,,,,,,,,,,,,2.9,1.0,2.7*2F\r\n"
$GPGSV,2,1,06,04,42,207,41,07,28,305,41,08,49,191,45,09,46,268,40*7E\r\n"
$GPGSV,2,2,06,16,51,053,40,26,25,071,37,,,,,,,,*7F\r\n"
$GLGSV,1,1,03,65,32,293,42,73,20,081,41,75,41,307,44,,,,*53\r\n"
$GAGSV,1,1,04,02,75,352,42,07,30,307,38,08,51,238,38,30,34,265,35*68\r\n"
$GNVTG,39.92,T,,M,2.09,N,3.87,K,D*10\r\n"
$GNGST,170302.00,0.477,,,,0.259,0.229,0.452*60\r\n"
$GNZDA,170302.00,02,02,2024,00,00*7B\r\n"
$GNRMC,170303.00,A,4220.3063338,N,07105.1727022,W,1.92,37.16,020224,,,D*64\r\n"
$GNGGA,170303.00,4220.3063338,N,07105.1727022,W,5,12,1.6,22.574,M,-28.725,M,1.0,0061*55\r\
  \n"
$GPGSA,A,3,04,07,08,09,16,,,,,,,,5.9,1.6,5.7*3E\r\n"
$GLGSA,A,3,65,74,75,,,,,,,,,,5.9,1.6,5.7*25\r\n"
$GAGSA,A,3,02,07,08,30,,,,,,,,,5.9,1.6,5.7*24\r\n"
$GBGSA,A,3,,,,,,,,,,,,,5.9,1.6,5.7*29\r\n"
$GPGSV,2,1,05,04,42,207,41,07,28,305,40,08,49,191,45,09,46,268,43*7F\r\n"
$GPGSV,2,2,05,16,51,053,42,,,,,,,,,,,,*4F\r\n"
$GLGSV,1,1,03,65,32,293,43,74,55,041,36,75,41,307,42,,,,*5D\r\n"
$GAGSV,1,1,04,02,75,352,40,07,30,307,35,08,51,238,41,30,34,265,38*64\r\n"
$GNVTG,37.16,T,,M,1.92,N,3.55,K,D*1C\r\n"
$GNGST,170303.00,0.489,,,,0.257,0.228,0.445*69\r\n"
$GNZDA,170303.00,02,02,2024,00,00*7A\r\n"
$GNRMC,170304.00,A,4220.3067661,N,07105.1722704,W,1.95,36.29,020224,,,D*62\r\n"
$GNGGA,170304.00,4220.3067661,N,07105.1722704,W,5,13,1.1,22.480,M,-28.725,M,2.0,0061*56\r\
  \n"
$GPGSA,A,3,04,07,08,09,16,,,,,,,,3.0,1.1,2.8*3E\r\n"
$GLGSA,A,3,65,73,74,75,,,,,,,,,3.0,1.1,2.8*21\r\n"
$GAGSA,A,3,02,07,08,30,,,,,,,,,3.0,1.1,2.8*24\r\n"
$GBGSA,A,3,,,,,,,,,,,,,3.0,1.1,2.8*29\r\n"
$GPGSV,2,1,05,04,42,207,39,07,28,305,40,08,49,191,45,09,46,268,41*72\r\n"
$GPGSV,2,2,05,16,51,053,40,,,,,,,,,,,,*4D\r\n"
$GLGSV,1,1,04,65,32,293,42,73,20,081,38,74,55,041,36,75,41,307,43*6E\r\n"
$GAGSV,1,1,04,02,75,352,42,07,30,307,36,08,51,238,40,30,34,265,36*6A\r\n"
$GNVTG,36.29,T,,M,1.95,N,3.61,K,D*11\r\n"
$GNGST,170304.00,0.454,,,,0.255,0.226,0.437*67\r\n"
$GNZDA,170304.00,02,02,2024,00,00*7D\r\n"
$GNRMC,170305.00,A,4220.3072203,N,07105.1717634,W,2.35,38.77,020224,,,D*6F\r\n"
$GNGGA,170305.00,4220.3072203,N,07105.1717634,W,5,13,1.1,22.305,M,-28.725,M,1.0,0061*5E\r\
  \n"
$GPGSA,A,3,04,07,08,09,16,26,,,,,,,3.4,1.1,3.2*35\r\n"
$GLGSA,A,3,65,74,75,,,,,,,,,,3.4,1.1,3.2*2A\r\n"
$GAGSA,A,3,02,07,08,30,,,,,,,,,3.4,1.1,3.2*2B\r\n"
$GBGSA,A,3,,,,,,,,,,,,,3.4,1.1,3.2*26\r\n"
$GPGSV,2,1,06,04,42,207,38,07,28,305,39,08,49,191,45,09,46,268,42*7D\r\n"
$GPGSV,2,2,06,16,51,053,41,26,25,071,36,,,,,,,,*7F\r\n"
$GLGSV,1,1,03,65,32,293,41,74,55,041,36,75,41,307,43,,,,*5E\r\n"
$GAGSV,1,1,04,02,75,352,41,07,30,307,36,08,51,238,40,30,34,265,38*67\r\n"
$GNVTG,38.77,T,,M,2.35,N,4.36,K,D*18\r\n"
$GNGST,170305.00,0.490,,,,0.252,0.224,0.427*6A\r\n"
$GNZDA,170305.00,02,02,2024,00,00*7C\r\n"
$GNRMC,170306.00,A,4220.3076566,N,07105.1712549,W,2.06,39.87,020224,,,D*6E\r\n"
$GNGGA,170306.00,4220.3076566,N,07105.1712549,W,5,12,1.0,22.112,M,-28.725,M,2.0,0061*56\r\
  \n"
$GPGSA,A,3,04,07,08,09,16,26,,,,,,,2.9,1.0,2.7*3C\r\n"
$GLGSA,A,3,65,73,75,,,,,,,,,,2.9,1.0,2.7*24\r\n"
$GAGSA,A,3,02,08,30,,,,,,,,,,2.9,1.0,2.7*25\r\n"
$GBGSA,A,3,,,,,,,,,,,,,2.9,1.0,2.7*2F\r\n"
$GPGSV,2,1,06,04,42,207,36,07,28,305,39,08,49,191,46,09,46,268,42*70\r\n"
$GPGSV,2,2,06,16,51,053,42,26,25,071,37,,,,,,,,*7D\r\n"
$GLGSV,1,1,03,65,32,293,41,73,20,081,36,75,41,307,42,,,,*56\r\n"
$GAGSV,1,1,03,02,75,353,40,08,51,238,40,30,34,265,35,,,,*58\r\n"
$GNVTG,39.87,T,,M,2.06,N,3.82,K,D*1E\r\n"
$GNGST,170306.00,0.440,,,,0.250,0.222,0.420*67\r\n"
$GNZDA,170306.00,02,02,2024,00,00*7F\r\n"
$GNRMC,170307.00,A,4220.3081127,N,07105.1707422,W,2.20,39.62,020224,,,D*61\r\n"
$GNGGA,170307.00,4220.3081127,N,07105.1707422,W,5,12,1.0,21.991,M,-28.725,M,1.0,0061*55\r\
  \n"
$GPGSA,A,3,04,07,08,09,16,26,,,,,,,2.9,1.0,2.7*3C\r\n"
$GLGSA,A,3,65,73,75,,,,,,,,,,2.9,1.0,2.7*24\r\n"
$GAGSA,A,3,02,08,30,,,,,,,,,,2.9,1.0,2.7*25\r\n"
$GBGSA,A,3,,,,,,,,,,,,,2.9,1.0,2.7*2F\r\n"
$GPGSV,2,1,06,04,42,207,38,07,28,305,39,08,49,191,45,09,46,268,43*7C\r\n"
$GPGSV,2,2,06,16,51,053,43,26,25,071,37,,,,,,,,*7C\r\n"
$GLGSV,1,1,03,65,32,293,40,73,20,081,38,75,41,307,41,,,,*5A\r\n"
$GAGSV,1,1,03,02,75,353,41,08,51,238,40,30,34,265,37,,,,*5B\r\n"
$GNVTG,39.62,T,,M,2.20,N,4.07,K,D*1B\r\n"
$GNGST,170307.00,1.430,,,,0.247,0.220,0.412*65\r\n"
$GNZDA,170307.00,02,02,2024,00,00*7E\r\n"
$GNRMC,170308.00,A,4220.3085449,N,07105.1702367,W,1.98,40.80,020224,,,D*66\r\n"
$GNGGA,170308.00,4220.3085449,N,07105.1702367,W,5,14,1.0,21.997,M,-28.725,M,1.0,0061*50\r\
  \n"
$GPGSA,A,3,04,07,08,09,16,26,,,,,,,2.9,1.0,2.7*3C\r\n"
$GLGSA,A,3,65,73,74,75,,,,,,,,,2.9,1.0,2.7*27\r\n"
$GAGSA,A,3,02,07,08,30,,,,,,,,,2.9,1.0,2.7*22\r\n"
$GBGSA,A,3,,,,,,,,,,,,,2.9,1.0,2.7*2F\r\n"
$GPGSV,2,1,06,04,42,207,39,07,28,305,37,08,49,191,45,09,46,268,44*74\r\n"
$GPGSV,2,2,06,16,51,053,41,26,25,071,35,,,,,,,,*7C\r\n"
$GLGSV,1,1,04,65,32,293,41,73,20,081,40,74,55,041,36,75,41,307,42*63\r\n"
$GAGSV,1,1,04,02,75,353,42,07,30,307,35,08,51,238,40,30,34,265,38*66\r\n"
$GNVTG,40.80,T,,M,1.98,N,3.67,K,D*18\r\n"
$GNGST,170308.00,0.572,,,,0.245,0.218,0.404*62\r\n"
$GNZDA,170308.00,02,02,2024,00,00*71\r\n"
$GNRMC,170309.00,A,4220.3089933,N,07105.1697225,W,2.25,40.30,020224,,,D*6F\r\n"
$GNGGA,170309.00,4220.3089933,N,07105.1697225,W,5,14,1.0,21.887,M,-28.725,M,2.0,0061*54\r\
  \n"
$GPGSA,A,3,04,07,08,09,16,26,,,,,,,2.9,1.0,2.7*3C\r\n"
$GLGSA,A,3,65,73,74,75,,,,,,,,,2.9,1.0,2.7*27\r\n"
$GAGSA,A,3,02,07,08,30,,,,,,,,,2.9,1.0,2.7*22\r\n"
$GBGSA,A,3,,,,,,,,,,,,,2.9,1.0,2.7*2F\r\n"
$GPGSV,2,1,06,04,42,207,38,07,28,305,37,08,49,191,43,09,46,268,42*75\r\n"
$GPGSV,2,2,06,16,51,053,39,26,25,071,35,,,,,,,,*73\r\n"
$GLGSV,1,1,04,65,32,293,40,73,20,081,42,74,55,041,40,75,41,307,45*66\r\n"
$GAGSV,1,1,04,02,75,353,42,07,30,307,37,08,51,238,40,30,34,265,38*64\r\n"
$GNVTG,40.30,T,,M,2.25,N,4.17,K,D*16\r\n"
$GNGST,170309.00,0.228,,,,0.243,0.216,0.398*61\r\n"
$GNZDA,170309.00,02,02,2024,00,00*70\r\n"
$GNRMC,170310.00,A,4220.3094473,N,07105.1691428,W,2.39,42.67,020224,,,D*62\r\n"
$GNGGA,170310.00,4220.3094473,N,07105.1691428,W,5,15,1.0,21.729,M,-28.725,M,1.0,0061*5D\r\
  \n"
$GPGSA,A,3,04,07,08,09,16,26,,,,,,,2.9,1.0,2.7*3C\r\n"
$GLGSA,A,3,65,73,74,75,,,,,,,,,2.9,1.0,2.7*27\r\n"
$GAGSA,A,3,02,03,07,08,30,,,,,,,,2.9,1.0,2.7*21\r\n"
$GBGSA,A,3,,,,,,,,,,,,,2.9,1.0,2.7*2F\r\n"
$GPGSV,2,1,06,04,42,207,41,07,28,305,38,08,49,191,46,09,46,268,42*71\r\n"
$GPGSV,2,2,06,16,51,053,41,26,25,071,37,,,,,,,,*7E\r\n"
$GLGSV,1,1,04,65,32,293,40,73,20,081,40,74,55,041,39,75,41,307,42*6D\r\n"
$GAGSV,2,1,05,02,75,353,45,03,22,182,39,07,30,307,36,08,51,238,42*6E\r\n"
$GAGSV,2,2,05,30,34,265,39,,,,,,,,,,,,*52\r\n"
$GNVTG,42.67,T,,M,2.39,N,4.42,K,D*1B\r\n"
$GNGST,170310.00,0.417,,,,0.240,0.214,0.391*6B\r\n"
$GNZDA,170310.00,02,02,2024,00,00*78\r\n"
$GNRMC,170311.00,A,4220.3099292,N,07105.1685877,W,2.28,40.51,020224,,,D*63\r\n"
$GNGGA,170311.00,4220.3099292,N,07105.1685877,W,5,15,1.0,21.668,M,-28.725,M,2.0,0061*5C\r\
  \n"
$GPGSA,A,3,04,07,08,09,16,26,,,,,,,2.8,1.0,2.6*3C\r\n"
$GLGSA,A,3,65,73,74,75,84,,,,,,,,2.8,1.0,2.6*2B\r\n"
$GAGSA,A,3,02,03,08,30,,,,,,,,,2.8,1.0,2.6*26\r\n"
$GBGSA,A,3,,,,,,,,,,,,,2.8,1.0,2.6*2F\r\n"
$GPGSV,2,1,06,04,42,207,40,07,28,306,37,08,49,191,46,09,46,268,43*7D\r\n"
$GPGSV,2,2,06,16,51,053,43,26,25,071,37,,,,,,,,*7C\r\n"
$GLGSV,2,1,05,65,32,293,39,73,20,081,36,74,55,041,38,75,41,307,43*60\r\n"
$GLGSV,2,2,05,84,42,102,35,,,,,,,,,,,,*5F\r\n"
$GAGSV,1,1,04,02,75,353,43,03,22,182,37,08,51,238,41,30,34,265,38*6C\r\n"
$GNVTG,40.51,T,,M,2.28,N,4.22,K,D*1A\r\n"
$GNGST,170311.00,0.264,,,,0.238,0.211,0.382*60\r\n"
$GNZDA,170311.00,02,02,2024,00,00*79\r\n"
$GNRMC,170312.00,A,4220.3103784,N,07105.1680484,W,2.06,41.42,020224,,,D*6A\r\n"
$GNGGA,170312.00,4220.3103784,N,07105.1680484,W,5,14,1.1,21.695,M,-28.724,M,1.0,0061*5A\r\
  \n"
$GPGSA,A,3,04,07,08,09,16,26,,,,,,,3.4,1.1,3.2*35\r\n"
$GLGSA,A,3,65,74,75,,,,,,,,,,3.4,1.1,3.2*2A\r\n"
$GAGSA,A,3,02,03,07,08,30,,,,,,,,3.4,1.1,3.2*28\r\n"
$GBGSA,A,3,,,,,,,,,,,,,3.4,1.1,3.2*26\r\n"
$GPGSV,2,1,06,04,42,207,40,07,28,306,39,08,49,191,45,09,46,268,42*71\r\n"
$GPGSV,2,2,06,16,51,053,43,26,25,071,37,,,,,,,,*7C\r\n"
$GLGSV,1,1,03,65,32,293,41,74,55,041,37,75,41,307,43,,,,*5F\r\n"
$GAGSV,2,1,05,02,75,353,43,03,22,182,35,07,30,307,37,08,51,238,42*65\r\n"
$GAGSV,2,2,05,30,34,266,41,,,,,,,,,,,,*5E\r\n"
$GNVTG,41.42,T,,M,2.06,N,3.81,K,D*1B\r\n"
$GNGST,170312.00,0.194,,,,0.236,0.209,0.376*63\r\n"
$GNZDA,170312.00,02,02,2024,00,00*7A\r\n"
$GNRMC,170313.00,A,4220.3108336,N,07105.1675711,W,2.02,37.49,020224,,,D*66\r\n"
$GNGGA,170313.00,4220.3108336,N,07105.1675711,W,5,15,1.0,21.699,M,-28.724,M,1.0,0061*54\r\
  \n"
$GPGSA,A,3,04,07,08,09,16,26,,,,,,,2.9,1.0,2.7*3C\r\n"
$GLGSA,A,3,65,73,74,75,,,,,,,,,2.9,1.0,2.7*27\r\n"
$GAGSA,A,3,02,03,07,08,30,,,,,,,,2.9,1.0,2.7*21\r\n"
$GBGSA,A,3,,,,,,,,,,,,,2.9,1.0,2.7*2F\r\n"
$GPGSV,2,1,06,04,42,207,39,07,28,306,40,08,49,191,42,09,46,268,42*76\r\n"
$GPGSV,2,2,06,16,51,053,45,26,25,071,39,,,,,,,,*74\r\n"
$GLGSV,1,1,04,65,32,293,40,73,20,081,37,74,55,041,39,75,41,307,45*6A\r\n"
$GAGSV,2,1,05,02,75,353,44,03,22,182,35,07,30,307,39,08,51,238,40*6E\r\n"
$GAGSV,2,2,05,30,34,266,41,,,,,,,,,,,,*5E\r\n"
$GNVTG,37.49,T,,M,2.02,N,3.73,K,D*18\r\n"
$GNGST,170313.00,0.246,,,,0.234,0.207,0.370*64\r\n"
$GNZDA,170313.00,02,02,2024,00,00*7B\r\n"
$GNRMC,170314.00,A,4220.3112977,N,07105.1670550,W,2.25,39.01,020224,,,D*60\r\n"
$GNGGA,170314.00,4220.3112977,N,07105.1670550,W,5,15,1.0,21.677,M,-28.724,M,2.0,0061*56\r\
  \n"
$GPGSA,A,3,04,07,08,09,16,26,,,,,,,2.8,1.0,2.6*3C\r\n"
$GLGSA,A,3,65,73,74,75,84,,,,,,,,2.8,1.0,2.6*2B\r\n"
$GAGSA,A,3,02,07,08,30,,,,,,,,,2.8,1.0,2.6*22\r\n"
$GBGSA,A,3,,,,,,,,,,,,,2.8,1.0,2.6*2F\r\n"
$GPGSV,2,1,06,04,42,207,41,07,28,306,36,08,49,191,45,09,46,268,42*7F\r\n"
$GPGSV,2,2,06,16,51,053,45,26,25,071,39,,,,,,,,*74\r\n"
$GLGSV,2,1,05,65,32,293,38,73,20,081,37,74,55,041,36,75,41,307,43*6E\r\n"
$GLGSV,2,2,05,84,42,102,35,,,,,,,,,,,,*5F\r\n"
$GAGSV,1,1,04,02,75,353,44,07,30,307,36,08,51,238,40,30,34,266,41*6E\r\n"
$GNVTG,39.01,T,,M,2.25,N,4.17,K,D*1A\r\n"
$GNGST,170314.00,0.881,,,,0.231,0.205,0.363*67\r\n"
$GNZDA,170314.00,02,02,2024,00,00*7C\r\n"
$GNRMC,170315.00,A,4220.3117045,N,07105.1665637,W,1.76,41.65,020224,,,D*62\r\n"
$GNGGA,170315.00,4220.3117045,N,07105.1665637,W,5,15,1.0,21.730,M,-28.724,M,1.0,0061*5D\r\
  \n"
$GPGSA,A,3,04,07,08,09,16,26,,,,,,,2.8,1.0,2.6*3C\r\n"
$GLGSA,A,3,65,73,74,75,84,,,,,,,,2.8,1.0,2.6*2B\r\n"
$GAGSA,A,3,02,07,08,30,,,,,,,,,2.8,1.0,2.6*22\r\n"
$GBGSA,A,3,,,,,,,,,,,,,2.8,1.0,2.6*2F\r\n"
$GPGSV,2,1,06,04,42,207,41,07,28,306,38,08,49,191,43,09,46,268,44*71\r\n"
$GPGSV,2,2,06,16,51,053,44,26,25,071,37,,,,,,,,*7B\r\n"
$GLGSV,2,1,05,65,32,293,42,73,20,081,39,74,55,041,38,75,41,307,44*64\r\n"
$GLGSV,2,2,05,84,42,102,35,,,,,,,,,,,,*5F\r\n"
$GAGSV,1,1,04,02,75,353,44,07,30,307,37,08,51,238,39,30,34,266,41*61\r\n"
$GNVTG,41.65,T,,M,1.76,N,3.27,K,D*16\r\n"
$GNGST,170315.00,0.345,,,,0.229,0.202,0.355*6E\r\n"
$GNZDA,170315.00,02,02,2024,00,00*7D\r\n"
$GNRMC,170316.00,A,4220.3121544,N,07105.1660801,W,2.13,38.88,020224,,,D*63\r\n"
$GNGGA,170316.00,4220.3121544,N,07105.1660801,W,5,14,1.0,21.751,M,-28.724,M,2.0,0061*54\r\
  \n"
$GPGSA,A,3,04,07,08,09,16,26,,,,,,,2.9,1.0,2.7*3C\r\n"
$GLGSA,A,3,65,73,74,75,,,,,,,,,2.9,1.0,2.7*27\r\n"
$GAGSA,A,3,02,07,08,30,,,,,,,,,2.9,1.0,2.7*22\r\n"
$GBGSA,A,3,,,,,,,,,,,,,2.9,1.0,2.7*2F\r\n"
$GPGSV,2,1,06,04,42,207,40,07,28,306,39,08,49,191,43,09,46,268,45*70\r\n"
$GPGSV,2,2,06,16,51,053,42,26,25,071,37,,,,,,,,*7D\r\n"
$GLGSV,1,1,04,65,32,293,40,73,20,081,38,74,55,041,36,75,41,307,43*6C\r\n"
$GAGSV,1,1,04,02,75,353,43,07,30,307,37,08,51,238,38,30,34,266,42*64\r\n"
$GNVTG,38.88,T,,M,2.13,N,3.94,K,D*13\r\n"
$GNGST,170316.00,0.277,,,,0.227,0.201,0.351*64\r\n"
$GNZDA,170316.00,02,02,2024,00,00*7E\r\n"
$GNRMC,170317.00,A,4220.3126014,N,07105.1655528,W,2.25,40.73,020224,,,D*6B\r\n"
$GNGGA,170317.00,4220.3126014,N,07105.1655528,W,5,14,1.0,21.692,M,-28.724,M,1.0,0061*5F\r\
  \n"
$GPGSA,A,3,04,07,08,09,16,26,,,,,,,2.9,1.0,2.7*3C\r\n"
$GLGSA,A,3,65,73,74,75,,,,,,,,,2.9,1.0,2.7*27\r\n"
$GAGSA,A,3,02,07,08,30,,,,,,,,,2.9,1.0,2.7*22\r\n"
$GBGSA,A,3,,,,,,,,,,,,,2.9,1.0,2.7*2F\r\n"
$GPGSV,2,1,06,04,42,207,42,07,28,306,39,08,49,191,45,09,46,268,44*75\r\n"
$GPGSV,2,2,06,16,51,053,43,26,25,071,37,,,,,,,,*7C\r\n"
$GLGSV,1,1,04,65,32,293,41,73,20,081,38,74,55,041,37,75,41,307,44*6B\r\n"
$GAGSV,1,1,04,02,75,353,45,07,30,307,39,08,51,238,41,30,34,266,42*62\r\n"
$GNVTG,40.73,T,,M,2.25,N,4.16,K,D*10\r\n"
$GNGST,170317.00,0.748,,,,0.225,0.199,0.345*69\r\n"
$GNZDA,170317.00,02,02,2024,00,00*7F\r\n"
$GNRMC,170318.00,A,4220.3130636,N,07105.1650314,W,2.19,39.57,020224,,,D*6E\r\n"
$GNGGA,170318.00,4220.3130636,N,07105.1650314,W,5,15,1.0,21.722,M,-28.724,M,1.0,0061*56\r\
  \n"
$GPGSA,A,3,04,07,08,09,16,26,,,,,,,2.9,1.0,2.7*3C\r\n"
$GLGSA,A,3,65,73,74,75,,,,,,,,,2.9,1.0,2.7*27\r\n"
$GAGSA,A,3,02,03,07,08,30,,,,,,,,2.9,1.0,2.7*21\r\n"
$GBGSA,A,3,,,,,,,,,,,,,2.9,1.0,2.7*2F\r\n"
$GPGSV,2,1,06,04,42,207,40,07,28,306,40,08,49,191,45,09,46,268,46*7B\r\n"
$GPGSV,2,2,06,16,51,053,44,26,25,071,36,,,,,,,,*7A\r\n"
$GLGSV,1,1,04,65,32,293,41,73,20,081,38,74,55,041,39,75,41,307,43*62\r\n"
$GAGSV,2,1,05,02,75,353,45,03,22,182,36,07,30,307,38,08,51,238,41*6C\r\n"
$GAGSV,2,2,05,30,34,266,40,,,,,,,,,,,,*5F\r\n"
$GNVTG,39.57,T,,M,2.19,N,4.06,K,D*16\r\n"
$GNGST,170318.00,0.653,,,,0.223,0.197,0.340*60\r\n"
$GNZDA,170318.00,02,02,2024,00,00*70\r\n"
$GNRMC,170319.00,A,4220.3135066,N,07105.1645258,W,1.99,39.96,020224,,,D*62\r\n"
$GNGGA,170319.00,4220.3135066,N,07105.1645258,W,5,15,1.0,21.735,M,-28.724,M,2.0,0061*59\r\
  \n"
$GPGSA,A,3,04,07,08,09,16,26,,,,,,,2.9,1.0,2.7*3C\r\n"
$GLGSA,A,3,65,73,74,75,,,,,,,,,2.9,1.0,2.7*27\r\n"
$GAGSA,A,3,02,03,07,08,30,,,,,,,,2.9,1.0,2.7*21\r\n"
$GBGSA,A,3,,,,,,,,,,,,,2.9,1.0,2.7*2F\r\n"
$GPGSV,2,1,06,04,42,207,42,07,28,306,40,08,49,191,45,09,46,268,46*79\r\n"
$GPGSV,2,2,06,16,51,053,44,26,25,071,38,,,,,,,,*74\r\n"
$GLGSV,1,1,04,65,32,293,41,73,20,081,36,74,55,041,38,75,41,307,43*6D\r\n"
$GAGSV,2,1,05,02,75,353,45,03,22,182,35,07,30,307,38,08,51,238,42*6C\r\n"
$GAGSV,2,2,05,30,34,266,41,,,,,,,,,,,,*5E\r\n"
$GNVTG,39.96,T,,M,1.99,N,3.69,K,D*1E\r\n"
$GNGST,170319.00,0.710,,,,0.222,0.196,0.336*66\r\n"
$GNZDA,170319.00,02,02,2024,00,00*71\r\n"
$GNRMC,170320.00,A,4220.3139356,N,07105.1640110,W,1.98,41.29,020224,,,D*64\r\n"
$GNGGA,170320.00,4220.3139356,N,07105.1640110,W,5,16,1.0,21.730,M,-28.724,M,1.0,0061*50\r\
  \n"
$GPGSA,A,3,04,07,08,09,16,26,,,,,,,2.8,1.0,2.6*3C\r\n"
$GLGSA,A,3,65,73,74,75,84,,,,,,,,2.8,1.0,2.6*2B\r\n"
$GAGSA,A,3,02,03,07,08,30,,,,,,,,2.8,1.0,2.6*21\r\n"
$GBGSA,A,3,,,,,,,,,,,,,2.8,1.0,2.6*2F\r\n"
$GPGSV,2,1,06,04,42,207,42,07,28,306,39,08,49,191,46,09,46,268,45*77\r\n"
$GPGSV,2,2,06,16,51,053,43,26,25,071,36,,,,,,,,*7D\r\n"
$GLGSV,2,1,05,65,32,293,43,73,20,081,40,74,55,041,38,75,41,307,45*6A\r\n"
$GLGSV,2,2,05,84,42,102,36,,,,,,,,,,,,*5C\r\n"
$GAGSV,2,1,05,02,75,353,45,03,22,182,35,07,30,307,38,08,51,238,42*6C\r\n"
$GAGSV,2,2,05,30,34,266,40,,,,,,,,,,,,*5F\r\n"
$GNVTG,41.29,T,,M,1.98,N,3.66,K,D*1B\r\n"
$GNGST,170320.00,0.631,,,,0.220,0.194,0.329*60\r\n"
$GNZDA,170320.00,02,02,2024,00,00*7B\r\n"
$GNRMC,170321.00,A,4220.3143360,N,07105.1635165,W,1.93,42.37,020224,,,D*6A\r\n"
$GNGGA,170321.00,4220.3143360,N,07105.1635165,W,5,14,1.0,21.774,M,-28.724,M,2.0,0061*58\r\
  \n"
$GPGSA,A,3,04,07,08,09,16,26,,,,,,,2.9,1.0,2.7*3C\r\n"
$GLGSA,A,3,65,73,74,75,,,,,,,,,2.9,1.0,2.7*27\r\n"
$GAGSA,A,3,02,07,08,30,,,,,,,,,2.9,1.0,2.7*22\r\n"
$GBGSA,A,3,,,,,,,,,,,,,2.9,1.0,2.7*2F\r\n"
$GPGSV,2,1,06,04,42,207,39,07,28,306,42,08,49,191,43,09,46,268,45*72\r\n"
$GPGSV,2,2,06,16,51,053,40,26,25,071,36,,,,,,,,*7E\r\n"
$GLGSV,1,1,04,65,32,293,42,73,20,081,38,74,55,041,35,75,41,307,43*6D\r\n"
$GAGSV,1,1,04,02,75,353,43,07,30,307,39,08,51,238,40,30,34,266,41*66\r\n"
$GNVTG,42.37,T,,M,1.93,N,3.57,K,D*1E\r\n"
$GNGST,170321.00,0.483,,,,0.218,0.192,0.326*68\r\n"
$GNZDA,170321.00,02,02,2024,00,00*7A\r\n"
$GNRMC,170322.00,A,4220.3147147,N,07105.1630970,W,1.60,39.86,020224,,,D*69\r\n"
$GNGGA,170322.00,4220.3147147,N,07105.1630970,W,5,14,1.1,21.866,M,-28.724,M,1.0,0061*5F\r\
  \n"
$GPGSA,A,3,04,07,08,09,16,,,,,,,,3.0,1.1,2.8*3E\r\n"
$GLGSA,A,3,65,73,74,75,,,,,,,,,3.0,1.1,2.8*21\r\n"
$GAGSA,A,3,02,03,07,08,30,,,,,,,,3.0,1.1,2.8*27\r\n"
$GBGSA,A,3,,,,,,,,,,,,,3.0,1.1,2.8*29\r\n"
$GPGSV,2,1,05,04,42,207,39,07,28,306,42,08,49,191,44,09,46,268,45*76\r\n"
